{
"type": "FeatureCollection",
"name": "4s",
"crs": { "type": "name", "properties": { "name": "urn:ogc:def:crs:OGC:1.3:CRS84" } },
"features": [
{ "type": "Feature", "properties": { "name": "腾达庆红汽车销售服务有限公司", "poiid": "B000A7QIJ9", "classify": "4S店", "address": "北京市昌平区北七家镇东三旗亚运村汽车交易市场北区A103", "tel": "010-81771200;010-81771500;4000002568", "star_level": null }, "geometry": { "type": "Point", "coordinates": [ 116.410788140296944, 40.094375529289238 ] } },
{ "type": "Feature", "properties": { "name": "东风日产北京东风南方大成专营店", "poiid": "B0FFH95SZQ", "classify": "4S店", "address": "北京市昌平区回龙观欧德宝汽车交易市场A区9号", "tel": "010-52961778;4008308899", "star_level": null }, "geometry": { "type": "Point", "coordinates": [ 116.303560624718685, 40.071575506329523 ] } },
{ "type": "Feature", "properties": { "name": "广汽丰田(传是百旺店)", "poiid": "B0FFJ1A6RN", "classify": "4S店", "address": "北京市海淀区西北旺北路与西北旺四街交叉口西100米", "tel": "13501060638", "star_level": null }, "geometry": { "type": "Point", "coordinates": [ 116.245659998655356, 40.050978170633314 ] } },
{ "type": "Feature", "properties": { "name": "保利汽车(北京)有限公司", "poiid": "B0FFI8PELZ", "classify": "4S店", "address": "北京市朝阳区新北路甲8号", "tel": "010-86678000", "star_level": null }, "geometry": { "type": "Point", "coordinates": [ 116.44265693306923, 40.028308764696121 ] } },
{ "type": "Feature", "properties": { "name": "宝马北京中升宝辉专营店", "poiid": "B0FFJL57UY", "classify": "4S店", "address": "北京市朝阳区德外大街花虎沟18号", "tel": null, "star_level": null }, "geometry": { "type": "Point", "coordinates": [ 116.352204717397683, 40.017117902040482 ] } },
{ "type": "Feature", "properties": { "name": "北京福源福禧汽车销售服务有限公司", "poiid": "B0FFJL6E66", "classify": "4S店", "address": "北京市朝阳区东苇路北京金港展览展示有限公司C区11号", "tel": "010-84566009;010-85858863", "star_level": null }, "geometry": { "type": "Point", "coordinates": [ 116.555629771947878, 40.017732108831396 ] } },
{ "type": "Feature", "properties": { "name": "北京骏宝捷汽车销售服务有限公司", "poiid": "B0FFH3QQCE", "classify": "4S店", "address": "北京市朝阳区将台乡坝河北岸8号", "tel": "010-64326688", "star_level": null }, "geometry": { "type": "Point", "coordinates": [ 116.486143969297416, 39.966714545488358 ] } },
{ "type": "Feature", "properties": { "name": "三元桥进口车城市展厅", "poiid": "B0FFH14NKL", "classify": "4S店", "address": "北京市朝阳区左家庄东街18号附近", "tel": null, "star_level": null }, "geometry": { "type": "Point", "coordinates": [ 116.44164930939678, 39.954766601324081 ] } },
{ "type": "Feature", "properties": { "name": "北京兰德陆华汽车销售有限公司", "poiid": "B0FFK1Q2GV", "classify": "4S店", "address": "北京市海淀区巨山路1号", "tel": "010-82598885;010-62596668", "star_level": null }, "geometry": { "type": "Point", "coordinates": [ 116.222026264667534, 39.952748153209697 ] } },
{ "type": "Feature", "properties": { "name": "北京百得利之星汽车销售有限公司", "poiid": "B000A8570P", "classify": "4S店", "address": "北京市海淀区西四环北路143号(定慧北桥西北侧)", "tel": "010-58739199;010-58739166", "star_level": null }, "geometry": { "type": "Point", "coordinates": [ 116.266762071847921, 39.929701205492023 ] } },
{ "type": "Feature", "properties": { "name": "东风日产航天正通专营店", "poiid": "B0FFG8SNJ1", "classify": "4S店", "address": "北京市海淀区阜石路61号", "tel": "010-68230303;010-68219978", "star_level": null }, "geometry": { "type": "Point", "coordinates": [ 116.234222630262366, 39.925308188199992 ] } },
{ "type": "Feature", "properties": { "name": "北京联通景隆汽车销售服务有限公司", "poiid": "B000A862BV", "classify": "4S店", "address": "北京市石景山区古城大街北京国际汽车贸易园区F区14号", "tel": "010-88916698", "star_level": null }, "geometry": { "type": "Point", "coordinates": [ 116.174967626333228, 39.916620348691936 ] } },
{ "type": "Feature", "properties": { "name": "北京路丰汇通汽车销售服务有限公司", "poiid": "B0FFFADXPK", "classify": "4S店", "address": "北京市朝阳区半壁店村广渠路388号", "tel": "010-56651616;010-56651717;010-56651551", "star_level": null }, "geometry": { "type": "Point", "coordinates": [ 116.526241811513927, 39.891128467321394 ] } },
{ "type": "Feature", "properties": { "name": "北京勤和祥通汽车销售服务有限公司", "poiid": "B0FFG73IU3", "classify": "4S店", "address": "北京市通州区九棵树西路11号", "tel": "010-81536141;010-81536140", "star_level": null }, "geometry": { "type": "Point", "coordinates": [ 116.648093379139922, 39.888356097340591 ] } },
{ "type": "Feature", "properties": { "name": "北京凯迪行汽车销售服务有限公司", "poiid": "B0FFIOVXF7", "classify": "4S店", "address": "北京市丰台区张仪村路23号院", "tel": "010-82680808;010-68600008;010-68600006", "star_level": null }, "geometry": { "type": "Point", "coordinates": [ 116.222264524698289, 39.88058121562004 ] } },
{ "type": "Feature", "properties": { "name": "北京正通宝泽汽车销售服务有限公司", "poiid": "B0FFJN3DM2", "classify": "4S店", "address": "北京市通州区张家湾镇土桥村西(南院)2幢", "tel": null, "star_level": null }, "geometry": { "type": "Point", "coordinates": [ 116.690855506658551, 39.864066008329402 ] } },
{ "type": "Feature", "properties": { "name": "东风日产北京宏远信诚专营店", "poiid": "B0FFHYCXVP", "classify": "4S店", "address": "北京市朝阳区欢乐谷东行3公里五方桥西南侧", "tel": "010-87393397;010-87393395", "star_level": null }, "geometry": { "type": "Point", "coordinates": [ 116.540771725177791, 39.862514574527751 ] } },
{ "type": "Feature", "properties": { "name": "广汽本田汽车长怡特约销售服务店", "poiid": "B000A80W0R", "classify": "4S店", "address": "北京市丰台区南三环西路31号", "tel": "010-83551889;010-83557399;010-63059999", "star_level": null }, "geometry": { "type": "Point", "coordinates": [ 116.350893138647081, 39.852443109750737 ] } },
{ "type": "Feature", "properties": { "name": "东风日产北京东风南方三合专营店", "poiid": "B0FFHYCTZG", "classify": "4S店", "address": "北京市大兴区经济技术开发区北环东路乙15号", "tel": "010-67862528;010-67881831", "star_level": null }, "geometry": { "type": "Point", "coordinates": [ 116.502292047739047, 39.81047090888022 ] } },
{ "type": "Feature", "properties": { "name": "北京运通博恩汽车销售服务有限公司", "poiid": "B000A83JC4", "classify": "4S店", "address": "北京市大兴区经济技术开发区同济北路2号", "tel": "010-67870077;010-67870588", "star_level": null }, "geometry": { "type": "Point", "coordinates": [ 116.506512056589145, 39.808458062410367 ] } },
{ "type": "Feature", "properties": { "name": "北京市良乡万达工贸有限公司", "poiid": "B000A7NZS2", "classify": "4S店", "address": "北京市房山区良乡拱辰北大街29号", "tel": "010-89369919;010-89360080", "star_level": null }, "geometry": { "type": "Point", "coordinates": [ 116.135104268789291, 39.747916015386579 ] } },
{ "type": "Feature", "properties": { "name": "北京运通兴瑞汽车销售服务有限公司", "poiid": "B000A9LE7O", "classify": "4S店", "address": "北京市大兴区西红门镇金时大街7号院5号楼101室", "tel": "010-67876007;4008681432;010-61281777", "star_level": null }, "geometry": { "type": "Point", "coordinates": [ 116.418339248895649, 39.73589606642723 ] } }
]
}
