{
"type": "FeatureCollection",
"name": "station",
"crs": { "type": "name", "properties": { "name": "urn:ogc:def:crs:OGC:1.3:CRS84" } },
"features": [
{ "type": "Feature", "properties": { "name": "宝城客运有限责任公司石马峪客运站", "poiid": "B0FFH5HTZP", "classify": "长途汽车站", "address": "北京市密云区石坝公路西50米", "tel": null, "star_level": null }, "geometry": { "type": "Point", "coordinates": [ 116.90109325766565, 40.456040233373656 ] } },
{ "type": "Feature", "properties": { "name": "大华山客运站", "poiid": "B000A87ZDT", "classify": "长途汽车站", "address": "北京市平谷区大华山大街甲150", "tel": null, "star_level": null }, "geometry": { "type": "Point", "coordinates": [ 117.058393644094451, 40.275731285810465 ] } },
{ "type": "Feature", "properties": { "name": "将军关客运站", "poiid": "B000A831U3", "classify": "长途汽车站", "address": "北京市平谷区金海湖", "tel": null, "star_level": null }, "geometry": { "type": "Point", "coordinates": [ 117.314948564767832, 40.263162957429898 ] } },
{ "type": "Feature", "properties": { "name": "万科金域国际滴滴车站", "poiid": "B0FFGEJ5V1", "classify": "长途汽车站", "address": "北京市昌平区龙域北街与龙域东一路交叉口向东300米", "tel": null, "star_level": null }, "geometry": { "type": "Point", "coordinates": [ 116.308571251630781, 40.066581324338912 ] } },
{ "type": "Feature", "properties": { "name": "大沟客运站", "poiid": "B000A8867H", "classify": "长途汽车站", "address": "北京市门头沟区503乡道附近", "tel": null, "star_level": null }, "geometry": { "type": "Point", "coordinates": [ 115.978072031736389, 40.051861842870721 ] } },
{ "type": "Feature", "properties": { "name": "吕家村客运站", "poiid": "B000A887RA", "classify": "长途汽车站", "address": "北京市门头沟区018县道东50米", "tel": null, "star_level": null }, "geometry": { "type": "Point", "coordinates": [ 115.792860036492371, 39.942280808091169 ] } },
{ "type": "Feature", "properties": { "name": "房山区篱笆房交通枢纽", "poiid": "B0FFHGOCR4", "classify": "长途汽车站", "address": "北京市房山区篱笆房地铁站A口", "tel": null, "star_level": null }, "geometry": { "type": "Point", "coordinates": [ 116.1828370511532, 39.75996045470238 ] } },
{ "type": "Feature", "properties": { "name": "临时站", "poiid": "B0FFFWE76H", "classify": "长途汽车站", "address": "北京市房山区月华南大街40号", "tel": null, "star_level": null }, "geometry": { "type": "Point", "coordinates": [ 116.106497689485536, 39.72243454813956 ] } }
]
}
