{
"type": "FeatureCollection",
"name": "supermaket",
"crs": { "type": "name", "properties": { "name": "urn:ogc:def:crs:OGC:1.3:CRS84" } },
"features": [
{ "type": "Feature", "properties": { "name": "大星发超市(番字牌店)", "poiid": "B000A87WFZ", "classify": "超市", "address": "北京市密云区008县道与052乡道交叉口南50米", "tel": "010-69686178", "star_level": null }, "geometry": { "type": "Point", "coordinates": [ 116.884915333986299, 40.738109847307214 ] } },
{ "type": "Feature", "properties": { "name": "华冠超市(星城北里南)", "poiid": "B0FFIVNJS5", "classify": "超市", "address": "北京市密云区吴庄村南后街与大件路交叉口东北50米", "tel": null, "star_level": null }, "geometry": { "type": "Point", "coordinates": [ 117.001302458047888, 40.670852626562123 ] } },
{ "type": "Feature", "properties": { "name": "超市", "poiid": "B0FFJJSHUW", "classify": "超市", "address": "北京市怀柔区京加路东50米", "tel": null, "star_level": null }, "geometry": { "type": "Point", "coordinates": [ 116.671744115352624, 40.595105669498452 ] } },
{ "type": "Feature", "properties": { "name": "北京格万佳发超市", "poiid": "B000A8879E", "classify": "超市", "address": "北京市密云区不老屯镇后半路大星发超市西北100米", "tel": null, "star_level": null }, "geometry": { "type": "Point", "coordinates": [ 117.002172178030008, 40.583155587911605 ] } },
{ "type": "Feature", "properties": { "name": "大星发超市(东兴店)", "poiid": "B0FFHQAK6U", "classify": "超市", "address": "北京市密云区京密路与松二路交叉口东50米", "tel": "010-69686178", "star_level": null }, "geometry": { "type": "Point", "coordinates": [ 117.14421837568284, 40.560784156322484 ] } },
{ "type": "Feature", "properties": { "name": "世纪华联超市(旧县店)", "poiid": "B000A8XS3R", "classify": "超市", "address": "北京市延庆区旧县村前街2号附近", "tel": null, "star_level": null }, "geometry": { "type": "Point", "coordinates": [ 116.083976843357078, 40.549036886692036 ] } },
{ "type": "Feature", "properties": { "name": "永安利民超市", "poiid": "B000AA6THE", "classify": "超市", "address": "北京市密云区太师屯镇永安街130号镇政府对面", "tel": null, "star_level": null }, "geometry": { "type": "Point", "coordinates": [ 117.122293118238446, 40.535062452554712 ] } },
{ "type": "Feature", "properties": { "name": "大星发超市(清存店)", "poiid": "B000A8879S", "classify": "超市", "address": "北京市密云区芦北公路东200米", "tel": null, "star_level": null }, "geometry": { "type": "Point", "coordinates": [ 117.13514025807379, 40.519021855592726 ] } },
{ "type": "Feature", "properties": { "name": "华联生活超市(靳家堡店)", "poiid": "B0FFH1Y9Z7", "classify": "超市", "address": "北京市延庆区京银路与018县道交叉口东北100米", "tel": "13716600361", "star_level": null }, "geometry": { "type": "Point", "coordinates": [ 115.93395267426969, 40.517870699763307 ] } },
{ "type": "Feature", "properties": { "name": "北庄便民超市(沙太路店)", "poiid": "B000A8UDUW", "classify": "超市", "address": "北京市密云区北庄(近沙太路)", "tel": null, "star_level": null }, "geometry": { "type": "Point", "coordinates": [ 117.170326308011994, 40.507776311635965 ] } },
{ "type": "Feature", "properties": { "name": "大星发超市(铭和店)", "poiid": "B000A886UE", "classify": "超市", "address": "北京市密云区华盛路与沙太路交叉口西100米", "tel": "010-81003985", "star_level": null }, "geometry": { "type": "Point", "coordinates": [ 117.175287345051785, 40.507728403210635 ] } },
{ "type": "Feature", "properties": { "name": "王留全商店", "poiid": "B0FFGW49WY", "classify": "超市", "address": "北京市延庆区沈家营镇后吕庄二区二号", "tel": null, "star_level": null }, "geometry": { "type": "Point", "coordinates": [ 116.057652794122703, 40.504219709634782 ] } },
{ "type": "Feature", "properties": { "name": "世纪华联超市", "poiid": "B0FFHKGAGI", "classify": "超市", "address": "北京市延庆区下坂泉西十八巷1号", "tel": "13520891256", "star_level": null }, "geometry": { "type": "Point", "coordinates": [ 115.889357184171701, 40.498548423051844 ] } },
{ "type": "Feature", "properties": { "name": "苇子峪综合超市", "poiid": "B0FFHRCP4N", "classify": "超市", "address": "北京市密云区北庄镇354乡道苇子峪老年活动中心", "tel": "010-81001508", "star_level": null }, "geometry": { "type": "Point", "coordinates": [ 117.167547386884678, 40.481778553724283 ] } },
{ "type": "Feature", "properties": { "name": "世纪华联超市", "poiid": "B0FFG3PZDN", "classify": "超市", "address": "北京市延庆区京银路与西卓家营路交叉口东100米", "tel": "13167344736", "star_level": null }, "geometry": { "type": "Point", "coordinates": [ 115.853751527071012, 40.477929946184162 ] } },
{ "type": "Feature", "properties": { "name": "世纪华联超市(大水峪店)", "poiid": "B0FFFADD1M", "classify": "超市", "address": "北京市怀柔区怀北镇青龙湖旅游度假区旁", "tel": null, "star_level": null }, "geometry": { "type": "Point", "coordinates": [ 116.693719804286957, 40.44591248750686 ] } },
{ "type": "Feature", "properties": { "name": "大星发超市(梓煜祥隆店)", "poiid": "B000A8Y9UW", "classify": "超市", "address": "北京市密云区西田各庄", "tel": "010-69686178", "star_level": null }, "geometry": { "type": "Point", "coordinates": [ 116.777811483144774, 40.442427550554271 ] } },
{ "type": "Feature", "properties": { "name": "世纪华联超市(高庙屯店)", "poiid": "B0FFGPNWHP", "classify": "超市", "address": "北京市延庆区司连路东50米", "tel": null, "star_level": null }, "geometry": { "type": "Point", "coordinates": [ 116.031237168312089, 40.43484760761261 ] } },
{ "type": "Feature", "properties": { "name": "联华生活超市", "poiid": "B0FFJK9W5V", "classify": "超市", "address": "北京市密云区韩西路与707乡道交叉口东150米", "tel": null, "star_level": null }, "geometry": { "type": "Point", "coordinates": [ 116.735659784674638, 40.433769829869277 ] } },
{ "type": "Feature", "properties": { "name": "北京德顺鑫发超市(印亮店)", "poiid": "B000A8YA6W", "classify": "超市", "address": "北京市密云区017县道北50米", "tel": "15911172583", "star_level": null }, "geometry": { "type": "Point", "coordinates": [ 116.784693368673317, 40.431525517702099 ] } },
{ "type": "Feature", "properties": { "name": "云兴隆超市", "poiid": "B000A87YD8", "classify": "超市", "address": "北京市密云区西田各庄卸甲山村3叉路口", "tel": null, "star_level": null }, "geometry": { "type": "Point", "coordinates": [ 116.760304261446009, 40.428543299436583 ] } },
{ "type": "Feature", "properties": { "name": "大星发超市(继敏店)", "poiid": "B000A8ZJZU", "classify": "超市", "address": "北京市密云区溪翁庄", "tel": "010-69686178", "star_level": null }, "geometry": { "type": "Point", "coordinates": [ 116.842562429904945, 40.419989154338836 ] } },
{ "type": "Feature", "properties": { "name": "尹宗飞商店", "poiid": "B0FFG986L9", "classify": "超市", "address": "北京市密云区东户部庄村西南区82号", "tel": "010-61017611", "star_level": null }, "geometry": { "type": "Point", "coordinates": [ 116.789652798771854, 40.414089985489838 ] } },
{ "type": "Feature", "properties": { "name": "喜洋洋超市", "poiid": "B000A87WE1", "classify": "超市", "address": "北京市密云区一街43号西田各庄村", "tel": null, "star_level": null }, "geometry": { "type": "Point", "coordinates": [ 116.765190939903277, 40.403164343833929 ] } },
{ "type": "Feature", "properties": { "name": "京密迎新超市", "poiid": "B000A9QQFG", "classify": "超市", "address": "北京市密云区双沙路与西沙公路交叉口西南100米", "tel": null, "star_level": null }, "geometry": { "type": "Point", "coordinates": [ 116.892496780157103, 40.402512401342392 ] } },
{ "type": "Feature", "properties": { "name": "大星发超市(占宝越进店)", "poiid": "B000A875HU", "classify": "超市", "address": "北京市密云区密兴路与408乡道交叉口西南200米", "tel": "010-69686178", "star_level": null }, "geometry": { "type": "Point", "coordinates": [ 117.108261824250206, 40.39445432841778 ] } },
{ "type": "Feature", "properties": { "name": "荣青超市", "poiid": "B000A9JSGG", "classify": "超市", "address": "北京市密云区统仓路与703乡道交叉口西50米", "tel": null, "star_level": null }, "geometry": { "type": "Point", "coordinates": [ 116.745375792980212, 40.392269904613499 ] } },
{ "type": "Feature", "properties": { "name": "大星发超市(密鑫隆店)", "poiid": "B000A881VR", "classify": "超市", "address": "北京市密云区统仓路与703乡道交叉口东50米", "tel": "010-69686178", "star_level": null }, "geometry": { "type": "Point", "coordinates": [ 116.746397466063499, 40.392002785801893 ] } },
{ "type": "Feature", "properties": { "name": "慈善超市", "poiid": "B0FFIW2Z63", "classify": "超市", "address": "北京市怀柔区京加路与环镇路交叉口东北200米", "tel": null, "star_level": null }, "geometry": { "type": "Point", "coordinates": [ 116.685829152464876, 40.389696182608603 ] } },
{ "type": "Feature", "properties": { "name": "北京好事运来超市", "poiid": "B0FFHP6XTA", "classify": "超市", "address": "北京市密云区西恒河路北", "tel": null, "star_level": null }, "geometry": { "type": "Point", "coordinates": [ 116.729234577417401, 40.390645800828935 ] } },
{ "type": "Feature", "properties": { "name": "云海绿洲超市", "poiid": "B000A880EZ", "classify": "超市", "address": "北京市密云区019县道北50米", "tel": null, "star_level": null }, "geometry": { "type": "Point", "coordinates": [ 116.781323584318159, 40.386524626016609 ] } },
{ "type": "Feature", "properties": { "name": "大星发超市(素雨恒心店)", "poiid": "B0FFFVEAVO", "classify": "超市", "address": "北京市密云区行宫街65号73号", "tel": "010-69087845", "star_level": null }, "geometry": { "type": "Point", "coordinates": [ 116.854909244775769, 40.383199957609179 ] } },
{ "type": "Feature", "properties": { "name": "青田联华超市(驸密路)", "poiid": "B0FFFADK0K", "classify": "超市", "address": "北京市密云区穆家裕镇新农村980汽车站", "tel": null, "star_level": null }, "geometry": { "type": "Point", "coordinates": [ 116.884509980678558, 40.384577534198755 ] } },
{ "type": "Feature", "properties": { "name": "世纪华联超市(行宫街店)", "poiid": "B000A8VQ4A", "classify": "超市", "address": "北京市密云区鼓楼街道行宫街108号", "tel": "010-69088964;15022567277", "star_level": null }, "geometry": { "type": "Point", "coordinates": [ 116.857102685570723, 40.379081074595447 ] } },
{ "type": "Feature", "properties": { "name": "超市发(西滨河店)", "poiid": "B000A0697D", "classify": "超市", "address": "北京市密云区西滨河路1层", "tel": "010-69067384", "star_level": null }, "geometry": { "type": "Point", "coordinates": [ 116.828266714215303, 40.375380763411513 ] } },
{ "type": "Feature", "properties": { "name": "北京聚元得隆超市", "poiid": "B000A7PQ23", "classify": "超市", "address": "北京市延庆区兴隆商业街136号", "tel": "13661196286;13810685719", "star_level": null }, "geometry": { "type": "Point", "coordinates": [ 115.895681055784252, 40.374351655244823 ] } },
{ "type": "Feature", "properties": { "name": "物美大卖场(密云果园店)", "poiid": "B000A8VTYA", "classify": "超市", "address": "北京市密云区密云镇果园路1号", "tel": "010-69090190;010-69090136;4001016016", "star_level": null }, "geometry": { "type": "Point", "coordinates": [ 116.824185098409657, 40.373073605298998 ] } },
{ "type": "Feature", "properties": { "name": "物美大卖场(鼓楼店)", "poiid": "B000A06980", "classify": "超市", "address": "北京市密云区鼓楼南大街1号", "tel": "010-69041473;010-69042677;4001016016", "star_level": null }, "geometry": { "type": "Point", "coordinates": [ 116.839587410092363, 40.373834435343753 ] } },
{ "type": "Feature", "properties": { "name": "双信超市(康庄店)", "poiid": "B0FFFAKJOB", "classify": "超市", "address": "北京市延庆区兴隆商业街178", "tel": null, "star_level": null }, "geometry": { "type": "Point", "coordinates": [ 115.895910366177574, 40.372452599406245 ] } },
{ "type": "Feature", "properties": { "name": "华联生活超市(兴隆商业街)", "poiid": "B000AA89JQ", "classify": "超市", "address": "北京市延庆区康庄镇兴隆商业街182号", "tel": "010-61167680", "star_level": null }, "geometry": { "type": "Point", "coordinates": [ 115.895986775159855, 40.372040761709215 ] } },
{ "type": "Feature", "properties": { "name": "海良超市", "poiid": "B0FFGHAXHC", "classify": "超市", "address": "北京市密云区巨各庄镇蔡家洼小区13号楼1单元102", "tel": null, "star_level": null }, "geometry": { "type": "Point", "coordinates": [ 116.887556622028342, 40.371053178310405 ] } },
{ "type": "Feature", "properties": { "name": "京客隆(密云店)", "poiid": "B000A24A79", "classify": "超市", "address": "北京市密云区新南路21号", "tel": "010-69082597", "star_level": null }, "geometry": { "type": "Point", "coordinates": [ 116.841407130956668, 40.369078510999685 ] } },
{ "type": "Feature", "properties": { "name": "海河便利超市", "poiid": "B0FFIGR6WU", "classify": "超市", "address": "承德市兴隆县马坊村", "tel": null, "star_level": null }, "geometry": { "type": "Point", "coordinates": [ 117.226619099378581, 40.369226473569867 ] } },
{ "type": "Feature", "properties": { "name": "广海发超市", "poiid": "B0FFF2FFY4", "classify": "超市", "address": "北京市密云区近郊中国北京市密云县大辛庄村中", "tel": null, "star_level": null }, "geometry": { "type": "Point", "coordinates": [ 116.736301079988493, 40.365110050439839 ] } },
{ "type": "Feature", "properties": { "name": "岳阳兴旺发超市", "poiid": "B000AA7Z7G", "classify": "超市", "address": "北京市密云区大辛庄北区119号楼(705乡道)", "tel": null, "star_level": null }, "geometry": { "type": "Point", "coordinates": [ 116.738617864847186, 40.36536059737206 ] } },
{ "type": "Feature", "properties": { "name": "大星发超市(怀柔区雁舞园店-38店)", "poiid": "B0FFG8S10G", "classify": "超市", "address": "北京市怀柔区雁栖镇柏泉山庄园雁舞园A区13号楼1-2层", "tel": "13811168056", "star_level": null }, "geometry": { "type": "Point", "coordinates": [ 116.66462971091272, 40.363122335672372 ] } },
{ "type": "Feature", "properties": { "name": "北京来秀英福商店", "poiid": "B000A8XNJV", "classify": "超市", "address": "北京市怀柔区雁栖经济开发区A区雁栖大街21号", "tel": null, "star_level": null }, "geometry": { "type": "Point", "coordinates": [ 116.687803343534483, 40.360794130563733 ] } },
{ "type": "Feature", "properties": { "name": "屈臣氏(密云万象汇店)", "poiid": "B0FFINI6KD", "classify": "超市", "address": "北京市密云区滨河路178号华润万象汇一层102号", "tel": "010-69051171;8009001380", "star_level": null }, "geometry": { "type": "Point", "coordinates": [ 116.828200689554222, 40.353605486154564 ] } },
{ "type": "Feature", "properties": { "name": "北京先富超市", "poiid": "B000A7ZL4Q", "classify": "超市", "address": "北京市平谷区镇罗营", "tel": "010-61966068", "star_level": null }, "geometry": { "type": "Point", "coordinates": [ 117.186101062297837, 40.354346926212315 ] } },
{ "type": "Feature", "properties": { "name": "大星发便民生鲜超市(金枫儒苑店)", "poiid": "B0FFH109UQ", "classify": "超市", "address": "北京市怀柔区杨雁路", "tel": "13811166871", "star_level": null }, "geometry": { "type": "Point", "coordinates": [ 116.677511199712768, 40.349410856962194 ] } },
{ "type": "Feature", "properties": { "name": "北京兴旺顺隆发超市", "poiid": "B0FFFF4V30", "classify": "超市", "address": "北京市密云区宁村中大街55号", "tel": "13718180017", "star_level": null }, "geometry": { "type": "Point", "coordinates": [ 116.85198696255685, 40.348747822046278 ] } },
{ "type": "Feature", "properties": { "name": "亚利乡园超市", "poiid": "B000A8XP2D", "classify": "超市", "address": "北京市怀柔区中高路西50米", "tel": null, "star_level": null }, "geometry": { "type": "Point", "coordinates": [ 116.702544745206836, 40.346082955598831 ] } },
{ "type": "Feature", "properties": { "name": "云琪顺超市", "poiid": "B000AA7M0L", "classify": "超市", "address": "北京市怀柔区北房镇安各庄村280号", "tel": null, "star_level": null }, "geometry": { "type": "Point", "coordinates": [ 116.697332966923753, 40.336153122782719 ] } },
{ "type": "Feature", "properties": { "name": "大星发超市(凤南发店)", "poiid": "B0FFGEASEV", "classify": "超市", "address": "北京市密云区天顺街37附近", "tel": "010-69686178", "star_level": null }, "geometry": { "type": "Point", "coordinates": [ 116.760202017426494, 40.333462845683087 ] } },
{ "type": "Feature", "properties": { "name": "世纪华联超市(怀柔店)", "poiid": "B000A8X4FV", "classify": "超市", "address": "北京市怀柔区北斜街与滨湖北街交叉口北100米", "tel": null, "star_level": null }, "geometry": { "type": "Point", "coordinates": [ 116.626373342871702, 40.329052031636238 ] } },
{ "type": "Feature", "properties": { "name": "世纪华联超市(朱光吉店)", "poiid": "B0FFG4AJEB", "classify": "超市", "address": "北京市密云区富强街与顺密路交叉口东北50米", "tel": null, "star_level": null }, "geometry": { "type": "Point", "coordinates": [ 116.817563812732715, 40.326478507518772 ] } },
{ "type": "Feature", "properties": { "name": "京客隆(怀柔店)", "poiid": "B000A8XDVS", "classify": "超市", "address": "北京市怀柔区怀柔镇下元综合市场南侧", "tel": "010-69689149", "star_level": null }, "geometry": { "type": "Point", "coordinates": [ 116.640702826976792, 40.324826209545137 ] } },
{ "type": "Feature", "properties": { "name": "世纪家家福生活超市(幸福大街)", "poiid": "B0FFG4A5HD", "classify": "超市", "address": "北京市怀柔区北房镇幸福西街19号", "tel": null, "star_level": null }, "geometry": { "type": "Point", "coordinates": [ 116.688249126672758, 40.325113211870203 ] } },
{ "type": "Feature", "properties": { "name": "金顺荣兴超市", "poiid": "B0FFF2Z6UU", "classify": "超市", "address": "北京市怀柔区苇里路东150米", "tel": null, "star_level": null }, "geometry": { "type": "Point", "coordinates": [ 116.741199678182596, 40.321689971685402 ] } },
{ "type": "Feature", "properties": { "name": "北京吉豪隆美超市", "poiid": "B000A7PGJC", "classify": "超市", "address": "北京市怀柔区怀柔怀柔镇王化村373号", "tel": null, "star_level": null }, "geometry": { "type": "Point", "coordinates": [ 116.660519186258313, 40.319643443822869 ] } },
{ "type": "Feature", "properties": { "name": "大星发超市(兴华店)", "poiid": "B0FFFHD8P8", "classify": "超市", "address": "北京市怀柔区迎宾中路25号1-13号", "tel": "13810266650", "star_level": null }, "geometry": { "type": "Point", "coordinates": [ 116.630753537416467, 40.317193795442591 ] } },
{ "type": "Feature", "properties": { "name": "大星发超市(宝塔店)", "poiid": "B000A87W6E", "classify": "超市", "address": "北京市密云区中国移动(密云宝塔商店指定专营店)", "tel": "010-69686178", "star_level": null }, "geometry": { "type": "Point", "coordinates": [ 116.784310899972922, 40.317029558420188 ] } },
{ "type": "Feature", "properties": { "name": "跃江龙超市", "poiid": "B0FFI8DXAX", "classify": "超市", "address": "北京市怀柔区围里村", "tel": null, "star_level": null }, "geometry": { "type": "Point", "coordinates": [ 116.734593033194571, 40.313855941891674 ] } },
{ "type": "Feature", "properties": { "name": "二兴益便利店赵晓峰超市", "poiid": "B000A9R0U7", "classify": "超市", "address": "北京市怀柔区中高路西50米", "tel": null, "star_level": null }, "geometry": { "type": "Point", "coordinates": [ 116.683929227590568, 40.312535916566858 ] } },
{ "type": "Feature", "properties": { "name": "北京明飞翔超市", "poiid": "B000A87W8J", "classify": "超市", "address": "北京市怀柔区中高路与开发区路交叉口北100米", "tel": null, "star_level": null }, "geometry": { "type": "Point", "coordinates": [ 116.67987573862078, 40.300411961078652 ] } },
{ "type": "Feature", "properties": { "name": "北京越阳晨超市", "poiid": "B000AA6WJV", "classify": "超市", "address": "北京市怀柔区北晨路26号", "tel": "18210299789", "star_level": null }, "geometry": { "type": "Point", "coordinates": [ 116.718765655756016, 40.300639821290972 ] } },
{ "type": "Feature", "properties": { "name": "世纪华联超市(张自口店)", "poiid": "B000A87XDR", "classify": "超市", "address": "北京市怀柔区杨宋镇张自口村289号", "tel": "010-61685093", "star_level": null }, "geometry": { "type": "Point", "coordinates": [ 116.679913973808311, 40.298852047920235 ] } },
{ "type": "Feature", "properties": { "name": "北京伊然春超市", "poiid": "B000A9QQIR", "classify": "超市", "address": "北京市怀柔区桥梓镇后桥子村154号", "tel": null, "star_level": null }, "geometry": { "type": "Point", "coordinates": [ 116.572134609818463, 40.293743523955342 ] } },
{ "type": "Feature", "properties": { "name": "聚宝兴旺超市", "poiid": "B000A9R2SB", "classify": "超市", "address": "北京市昌平区七昭路与昭陵路交叉口西100米", "tel": null, "star_level": null }, "geometry": { "type": "Point", "coordinates": [ 116.228868201971068, 40.288779164552679 ] } },
{ "type": "Feature", "properties": { "name": "世纪华联超市(泉通桥梓店)", "poiid": "B000A85ZR6", "classify": "超市", "address": "北京市怀柔区桥梓镇前桥梓村929号", "tel": "010-69676357", "star_level": null }, "geometry": { "type": "Point", "coordinates": [ 116.573097622394585, 40.28959515333176 ] } },
{ "type": "Feature", "properties": { "name": "1+1生活超市(影人店)", "poiid": "B0FFJD466S", "classify": "超市", "address": "北京市怀柔区杨宋镇怀耿路120号院1号楼1层102", "tel": "13810983595", "star_level": null }, "geometry": { "type": "Point", "coordinates": [ 116.672368372678761, 40.289274727106104 ] } },
{ "type": "Feature", "properties": { "name": "北京金沟乐超市", "poiid": "B0FFGG7RW1", "classify": "超市", "address": "北京市密云区金沟村利民街1号", "tel": "18710272781", "star_level": null }, "geometry": { "type": "Point", "coordinates": [ 116.759879677295686, 40.28871228456498 ] } },
{ "type": "Feature", "properties": { "name": "荣荣顺超市", "poiid": "B0FFFDXBYZ", "classify": "超市", "address": "北京市昌平区昭陵路", "tel": null, "star_level": null }, "geometry": { "type": "Point", "coordinates": [ 116.216550028324122, 40.28819908857345 ] } },
{ "type": "Feature", "properties": { "name": "田效商店", "poiid": "B0FFGIZE5Y", "classify": "超市", "address": "北京市怀柔区庙城高两河村九溪餐厅十字路口往北50米第一个路口往东", "tel": null, "star_level": null }, "geometry": { "type": "Point", "coordinates": [ 116.648843320608137, 40.287910975217827 ] } },
{ "type": "Feature", "properties": { "name": "华联生活超市(庙高路)", "poiid": "B0FFG92F6K", "classify": "超市", "address": "北京市怀柔区怀昌联线", "tel": null, "star_level": null }, "geometry": { "type": "Point", "coordinates": [ 116.65159048199655, 40.287379900217061 ] } },
{ "type": "Feature", "properties": { "name": "世纪华联超市(杨宋店)", "poiid": "B000A87X9L", "classify": "超市", "address": "北京市怀柔区杨宋镇大槐树", "tel": "010-61677348", "star_level": null }, "geometry": { "type": "Point", "coordinates": [ 116.678492789864563, 40.287150145173072 ] } },
{ "type": "Feature", "properties": { "name": "北京京浙福超市", "poiid": "B000A8ZJVX", "classify": "超市", "address": "北京市密云区寨镇平头村", "tel": "010-61084135", "star_level": null }, "geometry": { "type": "Point", "coordinates": [ 116.754639098644247, 40.287932946681977 ] } },
{ "type": "Feature", "properties": { "name": "百姓天天超市(曾天隆店)", "poiid": "B0FFIYVGCV", "classify": "超市", "address": "北京市平谷区和平街", "tel": null, "star_level": null }, "geometry": { "type": "Point", "coordinates": [ 117.058878943920121, 40.2876067996025 ] } },
{ "type": "Feature", "properties": { "name": "佳香缘超市", "poiid": "B000A9PW29", "classify": "超市", "address": "北京市怀柔区杨宋镇凤瑞二园十三号楼", "tel": null, "star_level": null }, "geometry": { "type": "Point", "coordinates": [ 116.674887032508849, 40.284964070320129 ] } },
{ "type": "Feature", "properties": { "name": "北京顺鑫超市", "poiid": "B000A883OC", "classify": "超市", "address": "北京市怀柔区214县道东200米", "tel": null, "star_level": null }, "geometry": { "type": "Point", "coordinates": [ 116.541355090141309, 40.281546254158016 ] } },
{ "type": "Feature", "properties": { "name": "鑫海兴隆百货超市", "poiid": "B0FFJOIKAJ", "classify": "超市", "address": "北京市平谷区平关路与胡熊路交叉口东北100米", "tel": null, "star_level": null }, "geometry": { "type": "Point", "coordinates": [ 117.067874872088439, 40.276277150511746 ] } },
{ "type": "Feature", "properties": { "name": "世纪华联超市(胡庄店)", "poiid": "B000A95CAZ", "classify": "超市", "address": "北京市昌平区水库西路附近", "tel": "010-89765681", "star_level": null }, "geometry": { "type": "Point", "coordinates": [ 116.226785110235227, 40.268346592187868 ] } },
{ "type": "Feature", "properties": { "name": "嘉美生活超市", "poiid": "B000A9QPS9", "classify": "超市", "address": "北京市昌平区虎峪路东50米", "tel": "13683308669", "star_level": null }, "geometry": { "type": "Point", "coordinates": [ 116.145752010941507, 40.264986786246297 ] } },
{ "type": "Feature", "properties": { "name": "北京景福蔬菜超市", "poiid": "B000A8XS08", "classify": "超市", "address": "北京市怀柔区庙城", "tel": null, "star_level": null }, "geometry": { "type": "Point", "coordinates": [ 116.64224024176599, 40.264252897500995 ] } },
{ "type": "Feature", "properties": { "name": "新世纪商城(康长路)", "poiid": "B000A9EUOX", "classify": "超市", "address": "北京市昌平区康长路南50米", "tel": null, "star_level": null }, "geometry": { "type": "Point", "coordinates": [ 116.207433038949972, 40.26142151951791 ] } },
{ "type": "Feature", "properties": { "name": "欣旺福隆超市", "poiid": "B000A87YBG", "classify": "超市", "address": "北京市怀柔区中富路324号", "tel": null, "star_level": null }, "geometry": { "type": "Point", "coordinates": [ 116.678290433287643, 40.262764536738402 ] } },
{ "type": "Feature", "properties": { "name": "北京市木林建玲超市", "poiid": "B000A8XPWO", "classify": "超市", "address": "北京市顺义区大韩庄中路与大韩庄西路交叉口东100米", "tel": null, "star_level": null }, "geometry": { "type": "Point", "coordinates": [ 116.732016421556466, 40.263187016248693 ] } },
{ "type": "Feature", "properties": { "name": "小强超市", "poiid": "B0FFH80375", "classify": "超市", "address": "北京市平谷区金海湖将军关新村93号(菜鸟驿站)", "tel": null, "star_level": null }, "geometry": { "type": "Point", "coordinates": [ 117.314712904691675, 40.261691216230389 ] } },
{ "type": "Feature", "properties": { "name": "淑平超市", "poiid": "B000A9QOG3", "classify": "超市", "address": "北京市顺义区丁大路与武德街交叉口西南50米", "tel": null, "star_level": null }, "geometry": { "type": "Point", "coordinates": [ 116.830720674991596, 40.253098275661472 ] } },
{ "type": "Feature", "properties": { "name": "新世纪商城(第87加盟便利店)", "poiid": "B000A8XSDH", "classify": "超市", "address": "北京市昌平区十三陵", "tel": null, "star_level": null }, "geometry": { "type": "Point", "coordinates": [ 116.234036539793038, 40.251875430345535 ] } },
{ "type": "Feature", "properties": { "name": "北京腾飞龙颖超市", "poiid": "B000A87YPC", "classify": "超市", "address": "北京市怀柔区中富路与年孙路交叉口西北100米", "tel": null, "star_level": null }, "geometry": { "type": "Point", "coordinates": [ 116.678352733850488, 40.251269158124927 ] } },
{ "type": "Feature", "properties": { "name": "振荣超市(年孙路)", "poiid": "B000A87YNP", "classify": "超市", "address": "北京市怀柔区中富路与年孙路交叉口西南50米", "tel": "010-89612168", "star_level": null }, "geometry": { "type": "Point", "coordinates": [ 116.678428922891641, 40.250368915796287 ] } },
{ "type": "Feature", "properties": { "name": "世纪华联超市", "poiid": "B0FFGAN2YE", "classify": "超市", "address": "北京市顺义区农药厂路11号附近", "tel": null, "star_level": null }, "geometry": { "type": "Point", "coordinates": [ 116.501050210595125, 40.247750517725947 ] } },
{ "type": "Feature", "properties": { "name": "顺平发平价超市", "poiid": "B000A884TS", "classify": "超市", "address": "北京市平谷区大华山", "tel": null, "star_level": null }, "geometry": { "type": "Point", "coordinates": [ 117.045674108266837, 40.247590719461442 ] } },
{ "type": "Feature", "properties": { "name": "北京韩钰超市", "poiid": "B000A9QOOK", "classify": "超市", "address": "北京市顺义区北孙各庄村前街2号附近", "tel": null, "star_level": null }, "geometry": { "type": "Point", "coordinates": [ 116.653292459249514, 40.246251412630087 ] } },
{ "type": "Feature", "properties": { "name": "来喜超市(下西市店)", "poiid": "B000A9R4D2", "classify": "超市", "address": "北京市顺义区复兴东路82号", "tel": null, "star_level": null }, "geometry": { "type": "Point", "coordinates": [ 116.491048614978808, 40.243048522472392 ] } },
{ "type": "Feature", "properties": { "name": "亿智源平价超市", "poiid": "B000A9PPUS", "classify": "超市", "address": "北京市昌平区新兴路13号", "tel": null, "star_level": null }, "geometry": { "type": "Point", "coordinates": [ 116.123459512591367, 40.24112754404544 ] } },
{ "type": "Feature", "properties": { "name": "北京华平顺祥超市", "poiid": "B000A9QOR1", "classify": "超市", "address": "北京市平谷区寅北路与辛庄子路交叉口东南50米", "tel": null, "star_level": null }, "geometry": { "type": "Point", "coordinates": [ 117.002505249977105, 40.242194151878351 ] } },
{ "type": "Feature", "properties": { "name": "丰茂商场", "poiid": "B000A9RNR3", "classify": "超市", "address": "北京市昌平区丁字街与交通街交叉口东150米", "tel": "010-51642854", "star_level": null }, "geometry": { "type": "Point", "coordinates": [ 116.12665473461152, 40.238354277610782 ] } },
{ "type": "Feature", "properties": { "name": "华联生活超市(龙虎台小区东南)", "poiid": "B0FFG9U4X9", "classify": "超市", "address": "北京市昌平区南口镇G6知春苑附近(龙虎台小区南)", "tel": "13611334865", "star_level": null }, "geometry": { "type": "Point", "coordinates": [ 116.149572216272361, 40.2392601788044 ] } },
{ "type": "Feature", "properties": { "name": "北京金麒荣超市", "poiid": "B000A9QQJV", "classify": "超市", "address": "北京市顺义区幸福北街28号", "tel": null, "star_level": null }, "geometry": { "type": "Point", "coordinates": [ 116.515754930973088, 40.240257537364968 ] } },
{ "type": "Feature", "properties": { "name": "北京市驰荣珂超市", "poiid": "B0FFFE9XZ6", "classify": "超市", "address": "北京市顺义区王泮庄村中街与王泮庄村北街二路交叉口北150米", "tel": null, "star_level": null }, "geometry": { "type": "Point", "coordinates": [ 116.805934468507786, 40.239914041757586 ] } },
{ "type": "Feature", "properties": { "name": "美廉美超市(南口店)", "poiid": "B000A830UZ", "classify": "超市", "address": "北京市昌平区南口镇交通街10号", "tel": "010-69770208;4001016016", "star_level": null }, "geometry": { "type": "Point", "coordinates": [ 116.123696893453598, 40.23761125206947 ] } },
{ "type": "Feature", "properties": { "name": "华联生活超市", "poiid": "B0FFIIEBO8", "classify": "超市", "address": "北京市昌平区南辛路东50米", "tel": null, "star_level": null }, "geometry": { "type": "Point", "coordinates": [ 116.158599539995208, 40.236983717679976 ] } },
{ "type": "Feature", "properties": { "name": "青田联华超市(幸福怡悦商店)", "poiid": "B0FFHDTT1U", "classify": "超市", "address": "北京市昌平区秦城村281号", "tel": "13439049283", "star_level": null }, "geometry": { "type": "Point", "coordinates": [ 116.391856075525283, 40.23783772349357 ] } },
{ "type": "Feature", "properties": { "name": "万富隆超市(朝凤路)", "poiid": "B000A8XNTM", "classify": "超市", "address": "北京市昌平区朝凤庵村239号", "tel": null, "star_level": null }, "geometry": { "type": "Point", "coordinates": [ 116.254054502248778, 40.235181733369842 ] } },
{ "type": "Feature", "properties": { "name": "便民浴池蔬菜水果超市", "poiid": "B0FFGBC5DU", "classify": "超市", "address": "北京市昌平区朝凤路北50米", "tel": null, "star_level": null }, "geometry": { "type": "Point", "coordinates": [ 116.25274210333825, 40.235204817056669 ] } },
{ "type": "Feature", "properties": { "name": "世纪华联超市店(朝凤北路)", "poiid": "B000A8XNOF", "classify": "超市", "address": "北京市昌平区朝凤路东50米", "tel": "010-56109471", "star_level": null }, "geometry": { "type": "Point", "coordinates": [ 116.25270399570465, 40.234857745170601 ] } },
{ "type": "Feature", "properties": { "name": "新世纪商城(下木路)", "poiid": "B000A8Y98X", "classify": "超市", "address": "北京市昌平区桃西路", "tel": null, "star_level": null }, "geometry": { "type": "Point", "coordinates": [ 116.434801571369178, 40.234421975612648 ] } },
{ "type": "Feature", "properties": { "name": "北京春晓超市", "poiid": "B000A87XKM", "classify": "超市", "address": "北京市顺义区北小营镇牛富屯村", "tel": null, "star_level": null }, "geometry": { "type": "Point", "coordinates": [ 116.714136718511611, 40.236228438615811 ] } },
{ "type": "Feature", "properties": { "name": "喜润来超市", "poiid": "B000A880MF", "classify": "超市", "address": "北京市昌平区后洼村南兴路中段北侧东北方向92米", "tel": "010-89799098;18335853328", "star_level": null }, "geometry": { "type": "Point", "coordinates": [ 116.08144827008249, 40.23317268967628 ] } },
{ "type": "Feature", "properties": { "name": "永发生活超市(南口店)", "poiid": "B0FFGYU4U8", "classify": "超市", "address": "北京市昌平区南口镇南大街21号20号楼1层", "tel": null, "star_level": null }, "geometry": { "type": "Point", "coordinates": [ 116.117607116997249, 40.232517895400512 ] } },
{ "type": "Feature", "properties": { "name": "大学生超市", "poiid": "B0FFGDZQ2Y", "classify": "超市", "address": "北京市昌平区北京联合大学昌平校区", "tel": "13683212085", "star_level": null }, "geometry": { "type": "Point", "coordinates": [ 116.213606297969818, 40.234113895893103 ] } },
{ "type": "Feature", "properties": { "name": "世纪华联超市", "poiid": "B000A9R3HL", "classify": "超市", "address": "北京市昌平区朝辛路西50米", "tel": null, "star_level": null }, "geometry": { "type": "Point", "coordinates": [ 116.278509336113942, 40.233270905613892 ] } },
{ "type": "Feature", "properties": { "name": "富迪超市(桃西路)", "poiid": "B000A9JVEE", "classify": "超市", "address": "北京市昌平区兴寿镇桃林桃西路兴寿火车站南450米", "tel": null, "star_level": null }, "geometry": { "type": "Point", "coordinates": [ 116.424859731197358, 40.233593699932101 ] } },
{ "type": "Feature", "properties": { "name": "隆华生活超市(大胡营店)", "poiid": "B0FFFEAK10", "classify": "超市", "address": "北京市顺义区兴华路4号东北70米", "tel": null, "star_level": null }, "geometry": { "type": "Point", "coordinates": [ 116.698601619005217, 40.232894943952559 ] } },
{ "type": "Feature", "properties": { "name": "新世纪商城(邓庄老店)", "poiid": "B0FFG3DJCV", "classify": "超市", "address": "北京市昌平区邓庄村", "tel": null, "star_level": null }, "geometry": { "type": "Point", "coordinates": [ 116.193021064996714, 40.22844219803811 ] } },
{ "type": "Feature", "properties": { "name": "方城商贸中心", "poiid": "B0FFH813GU", "classify": "超市", "address": "北京市昌平区城北街道北环路", "tel": null, "star_level": null }, "geometry": { "type": "Point", "coordinates": [ 116.2295785558224, 40.229251598119745 ] } },
{ "type": "Feature", "properties": { "name": "万有超市", "poiid": "B0FFG44ZLV", "classify": "超市", "address": "北京市顺义区赵全营镇西绛州营村", "tel": null, "star_level": null }, "geometry": { "type": "Point", "coordinates": [ 116.535193830728559, 40.229219139814376 ] } },
{ "type": "Feature", "properties": { "name": "北京马坊鑫万家超市", "poiid": "B000A8XKES", "classify": "超市", "address": "北京市昌平区南雁路与马兴路交叉口北150米", "tel": "13146196067", "star_level": null }, "geometry": { "type": "Point", "coordinates": [ 116.103706783056282, 40.226949921846384 ] } },
{ "type": "Feature", "properties": { "name": "隆福多超市", "poiid": "B000A8XQ24", "classify": "超市", "address": "北京市昌平区南辛路东50米", "tel": null, "star_level": null }, "geometry": { "type": "Point", "coordinates": [ 116.156313374638572, 40.226761789917944 ] } },
{ "type": "Feature", "properties": { "name": "世纪华联超市(八街店)", "poiid": "B000A8VRH8", "classify": "超市", "address": "北京市昌平区", "tel": null, "star_level": null }, "geometry": { "type": "Point", "coordinates": [ 116.229502438306838, 40.227085155248645 ] } },
{ "type": "Feature", "properties": { "name": "北京德顺益和兴旺超市", "poiid": "B0FFG4AWAB", "classify": "超市", "address": "北京市顺义区赵全营镇西兴南街25号", "tel": null, "star_level": null }, "geometry": { "type": "Point", "coordinates": [ 116.535063903331775, 40.227803800106045 ] } },
{ "type": "Feature", "properties": { "name": "世纪华联超市(860乡道)", "poiid": "B000A8Y917", "classify": "超市", "address": "北京市顺义区赵全营", "tel": null, "star_level": null }, "geometry": { "type": "Point", "coordinates": [ 116.558945371508614, 40.224833627343187 ] } },
{ "type": "Feature", "properties": { "name": "云照祥超市", "poiid": "B0FFFVH3SX", "classify": "超市", "address": "北京市顺义区金鸡路与青新街交叉口西南50米", "tel": null, "star_level": null }, "geometry": { "type": "Point", "coordinates": [ 116.719658690691006, 40.224219058752055 ] } },
{ "type": "Feature", "properties": { "name": "艳芬超市", "poiid": "B000A884HD", "classify": "超市", "address": "北京市顺义区蒋各庄中二街33号", "tel": "010-60458483", "star_level": null }, "geometry": { "type": "Point", "coordinates": [ 116.774800726771375, 40.224059725403791 ] } },
{ "type": "Feature", "properties": { "name": "长存商贸超市", "poiid": "B0FFH13BQW", "classify": "超市", "address": "北京市昌平区旧县村昌环清洁用品经营部南50米", "tel": "13161902767", "star_level": null }, "geometry": { "type": "Point", "coordinates": [ 116.181569577455519, 40.223185127973551 ] } },
{ "type": "Feature", "properties": { "name": "物美超市(昌平店)", "poiid": "B000A87E0K", "classify": "超市", "address": "北京市昌平区鼓楼西大街1号", "tel": "010-69742317;010-69712584;13520341786", "star_level": null }, "geometry": { "type": "Point", "coordinates": [ 116.227042928338065, 40.223353089690207 ] } },
{ "type": "Feature", "properties": { "name": "世纪华联超市(安四路店)", "poiid": "B000A8XT96", "classify": "超市", "address": "北京市昌平区兴寿", "tel": null, "star_level": null }, "geometry": { "type": "Point", "coordinates": [ 116.408054369688017, 40.221839779615394 ] } },
{ "type": "Feature", "properties": { "name": "胜大福星超市", "poiid": "B000A87ZT7", "classify": "超市", "address": "北京市顺义区后桑园南大街与860乡道交叉口西50米", "tel": null, "star_level": null }, "geometry": { "type": "Point", "coordinates": [ 116.559350926280032, 40.221725836396232 ] } },
{ "type": "Feature", "properties": { "name": "世纪联华超市(860乡道)", "poiid": "B000A8Y9UZ", "classify": "超市", "address": "北京市顺义区后桑园村利民超市860乡道", "tel": null, "star_level": null }, "geometry": { "type": "Point", "coordinates": [ 116.559740626811987, 40.223114807605754 ] } },
{ "type": "Feature", "properties": { "name": "北京奥涵超市", "poiid": "B0FFFVHEZF", "classify": "超市", "address": "北京市顺义区蓝津街23号", "tel": null, "star_level": null }, "geometry": { "type": "Point", "coordinates": [ 116.719171431064638, 40.223342363834377 ] } },
{ "type": "Feature", "properties": { "name": "春秀超市", "poiid": "B000A8ZJPY", "classify": "超市", "address": "北京市昌平区农场路西50米", "tel": null, "star_level": null }, "geometry": { "type": "Point", "coordinates": [ 116.173842529058476, 40.219909728765487 ] } },
{ "type": "Feature", "properties": { "name": "兴旺源超市", "poiid": "B0FFG8Y9US", "classify": "超市", "address": "北京市昌平区北郝庄村4层楼幼儿园对面", "tel": null, "star_level": null }, "geometry": { "type": "Point", "coordinates": [ 116.202177149057377, 40.22108061671257 ] } },
{ "type": "Feature", "properties": { "name": "新世纪商城", "poiid": "B000A889X7", "classify": "超市", "address": "北京市昌平区兴寿镇兴寿村", "tel": "010-61722348", "star_level": null }, "geometry": { "type": "Point", "coordinates": [ 116.408955082297339, 40.221298418641084 ] } },
{ "type": "Feature", "properties": { "name": "新世纪商城(上西路)", "poiid": "B000A85RV7", "classify": "超市", "address": "北京市昌平区上西路西50米", "tel": "010-61709284", "star_level": null }, "geometry": { "type": "Point", "coordinates": [ 116.442617042064683, 40.219940955638876 ] } },
{ "type": "Feature", "properties": { "name": "世纪华联超市", "poiid": "B0FFFEAHB7", "classify": "超市", "address": "北京市顺义区205乡道北小营镇仇店中小北府小学", "tel": null, "star_level": null }, "geometry": { "type": "Point", "coordinates": [ 116.742531400918978, 40.219682976007462 ] } },
{ "type": "Feature", "properties": { "name": "明月瑶超市", "poiid": "B000A87ZWH", "classify": "超市", "address": "北京市顺义区前桑园村中街与860乡道交叉口北150米", "tel": "13520161788", "star_level": null }, "geometry": { "type": "Point", "coordinates": [ 116.55934362292291, 40.218956798315048 ] } },
{ "type": "Feature", "properties": { "name": "世纪华联超市(李桃路)", "poiid": "B000A87Y69", "classify": "超市", "address": "北京市昌平区南雁路与李桃路交叉口南50米", "tel": "13757813326", "star_level": null }, "geometry": { "type": "Point", "coordinates": [ 116.098646788597108, 40.216185994148248 ] } },
{ "type": "Feature", "properties": { "name": "天天升世纪华联超市", "poiid": "B000A8XLMQ", "classify": "超市", "address": "北京市昌平区李桃路南50米", "tel": "13757813326", "star_level": null }, "geometry": { "type": "Point", "coordinates": [ 116.100349057912837, 40.215972479581822 ] } },
{ "type": "Feature", "properties": { "name": "双凤商店", "poiid": "B0FFG8FCUD", "classify": "超市", "address": "北京市昌平区兴寿镇东庄村166号", "tel": null, "star_level": null }, "geometry": { "type": "Point", "coordinates": [ 116.387611813545249, 40.216652913093561 ] } },
{ "type": "Feature", "properties": { "name": "士成超市", "poiid": "B000A9JU5X", "classify": "超市", "address": "北京市顺义区安康北街与燕华大街交叉口东北50米", "tel": null, "star_level": null }, "geometry": { "type": "Point", "coordinates": [ 116.484297697544093, 40.214610216617587 ] } },
{ "type": "Feature", "properties": { "name": "国惠村生活超市", "poiid": "B0FFH0VYY4", "classify": "超市", "address": "北京市昌平区南邵镇景昌南街2号院", "tel": null, "star_level": null }, "geometry": { "type": "Point", "coordinates": [ 116.290474075078976, 40.212545779943468 ] } },
{ "type": "Feature", "properties": { "name": "北京喜营顺超市", "poiid": "B000A8Y938", "classify": "超市", "address": "北京市顺义区赵全营镇牛板路31号", "tel": null, "star_level": null }, "geometry": { "type": "Point", "coordinates": [ 116.597815231084837, 40.212035924196243 ] } },
{ "type": "Feature", "properties": { "name": "马大姐休闲食品超市", "poiid": "B0FFG8F7MW", "classify": "超市", "address": "北京市顺义区赵全营镇牛板路99号", "tel": "18001206883", "star_level": null }, "geometry": { "type": "Point", "coordinates": [ 116.605684901475911, 40.211878074407579 ] } },
{ "type": "Feature", "properties": { "name": "双阳玲华超市", "poiid": "B000A8XSO7", "classify": "超市", "address": "北京市顺义区赵全营镇板桥村牛板路15号", "tel": null, "star_level": null }, "geometry": { "type": "Point", "coordinates": [ 116.520230550169956, 40.209395449757579 ] } },
{ "type": "Feature", "properties": { "name": "世纪华联超市(宏斋路)", "poiid": "B000A8XBM6", "classify": "超市", "address": "北京市昌平区马池口镇伊舍小镇8号楼底商", "tel": "15901348314", "star_level": null }, "geometry": { "type": "Point", "coordinates": [ 116.182956343889259, 40.20756129145623 ] } },
{ "type": "Feature", "properties": { "name": "新世纪商城(沙坨村店)", "poiid": "B000A7ZLHI", "classify": "超市", "address": "北京市昌平区兴寿", "tel": null, "star_level": null }, "geometry": { "type": "Point", "coordinates": [ 116.415132690668116, 40.208737372159945 ] } },
{ "type": "Feature", "properties": { "name": "北京鸿鹏恒昌超市", "poiid": "B000A9JUSX", "classify": "超市", "address": "北京市昌平区昌金路南150米", "tel": "13691007423", "star_level": null }, "geometry": { "type": "Point", "coordinates": [ 116.458285447359088, 40.206074239015578 ] } },
{ "type": "Feature", "properties": { "name": "京鲁百顺超市", "poiid": "B000A9V7SA", "classify": "超市", "address": "北京市昌平区可好大药房南50米(034县道北)", "tel": null, "star_level": null }, "geometry": { "type": "Point", "coordinates": [ 116.210636397600211, 40.202857426404947 ] } },
{ "type": "Feature", "properties": { "name": "顺民超市", "poiid": "B0FFG3BM8A", "classify": "超市", "address": "北京市昌平区崔村镇科技文化活动中心", "tel": "010-60735809;13681147675", "star_level": null }, "geometry": { "type": "Point", "coordinates": [ 116.344529626965553, 40.203795056939128 ] } },
{ "type": "Feature", "properties": { "name": "英磊超市", "poiid": "B000A9PU6Z", "classify": "超市", "address": "北京市顺义区赵全营镇北郎中村向前街12号", "tel": null, "star_level": null }, "geometry": { "type": "Point", "coordinates": [ 116.560568528771412, 40.204346945881852 ] } },
{ "type": "Feature", "properties": { "name": "世纪华联超市", "poiid": "B0FFHHD07M", "classify": "超市", "address": "北京市顺义区建新路31号", "tel": "13562729368", "star_level": null }, "geometry": { "type": "Point", "coordinates": [ 116.79198673129082, 40.203456560373311 ] } },
{ "type": "Feature", "properties": { "name": "南方明珠超市", "poiid": "B0FFFSCHGE", "classify": "超市", "address": "北京市昌平区水南路609号", "tel": "18610103470;13661386518", "star_level": null }, "geometry": { "type": "Point", "coordinates": [ 116.205682035684589, 40.20107316851616 ] } },
{ "type": "Feature", "properties": { "name": "明云超市(百泉花园东)", "poiid": "B000A7Q0XG", "classify": "超市", "address": "北京市昌平区马池口镇白泉庄村241号", "tel": null, "star_level": null }, "geometry": { "type": "Point", "coordinates": [ 116.210254307389263, 40.201457127928734 ] } },
{ "type": "Feature", "properties": { "name": "世纪华联超市(百水路)", "poiid": "B0FFH0WJSE", "classify": "超市", "address": "北京市昌平区百水路南100米", "tel": null, "star_level": null }, "geometry": { "type": "Point", "coordinates": [ 116.21040714323523, 40.202029454112051 ] } },
{ "type": "Feature", "properties": { "name": "世纪华联", "poiid": "B000A8ZK6D", "classify": "超市", "address": "北京市昌平区棉辛路90号", "tel": "15711340340", "star_level": null }, "geometry": { "type": "Point", "coordinates": [ 116.319417737722404, 40.201302374601354 ] } },
{ "type": "Feature", "properties": { "name": "旺夫隆超市", "poiid": "B0FFFWJHGC", "classify": "超市", "address": "北京市昌平区后大路与崔阿路交叉口西南50米", "tel": null, "star_level": null }, "geometry": { "type": "Point", "coordinates": [ 116.346006702184695, 40.202278178930271 ] } },
{ "type": "Feature", "properties": { "name": "双新乐园超市", "poiid": "B000A8XQSB", "classify": "超市", "address": "北京市平谷区王辛庄镇乐园路9号", "tel": "010-89969171", "star_level": null }, "geometry": { "type": "Point", "coordinates": [ 117.048501118421569, 40.200801206827165 ] } },
{ "type": "Feature", "properties": { "name": "新世纪商城(水南路)", "poiid": "B000A8XMLA", "classify": "超市", "address": "北京市昌平区马池口", "tel": null, "star_level": null }, "geometry": { "type": "Point", "coordinates": [ 116.200612128973006, 40.199501730203636 ] } },
{ "type": "Feature", "properties": { "name": "华联购物中心(水屯店)", "poiid": "B0FFFDE88R", "classify": "超市", "address": "北京市昌平区水屯家园东100米", "tel": null, "star_level": null }, "geometry": { "type": "Point", "coordinates": [ 116.218594359159482, 40.199686051607131 ] } },
{ "type": "Feature", "properties": { "name": "中旺超市", "poiid": "B000A87Y7G", "classify": "超市", "address": "北京市昌平区崔村镇崔阿路", "tel": null, "star_level": null }, "geometry": { "type": "Point", "coordinates": [ 116.345755770206466, 40.19998251199722 ] } },
{ "type": "Feature", "properties": { "name": "西兴旺超市西营村", "poiid": "B000A9POAM", "classify": "超市", "address": "北京市昌平区上西路西50米", "tel": null, "star_level": null }, "geometry": { "type": "Point", "coordinates": [ 116.439721633195916, 40.200037809610365 ] } },
{ "type": "Feature", "properties": { "name": "东营超市", "poiid": "B0FFHR6YQC", "classify": "超市", "address": "北京市昌平区兴寿镇东营村71号", "tel": "010-61708525", "star_level": null }, "geometry": { "type": "Point", "coordinates": [ 116.445716914534572, 40.199495247006411 ] } },
{ "type": "Feature", "properties": { "name": "久永物盛超市", "poiid": "B000A8XQT5", "classify": "超市", "address": "北京市平谷区平关路西50米", "tel": null, "star_level": null }, "geometry": { "type": "Point", "coordinates": [ 117.048706563115118, 40.199728994965568 ] } },
{ "type": "Feature", "properties": { "name": "君乐福超市", "poiid": "B000A885OR", "classify": "超市", "address": "北京市平谷区北山路与熊南路交叉口东100米", "tel": null, "star_level": null }, "geometry": { "type": "Point", "coordinates": [ 117.205196071863185, 40.199623016119006 ] } },
{ "type": "Feature", "properties": { "name": "世纪华联超市(稷山营店)", "poiid": "B000A9PVRP", "classify": "超市", "address": "北京市顺义区稷山路与赵全营镇北一街交叉口西南50米", "tel": null, "star_level": null }, "geometry": { "type": "Point", "coordinates": [ 116.541878499388716, 40.194839528203005 ] } },
{ "type": "Feature", "properties": { "name": "北京鲁梁金旭超市", "poiid": "B0FFG4WXDH", "classify": "超市", "address": "北京市顺义区北大街与柳庄户西路交叉口东50米", "tel": null, "star_level": null }, "geometry": { "type": "Point", "coordinates": [ 116.86595716476441, 40.194565525054941 ] } },
{ "type": "Feature", "properties": { "name": "天利来超市", "poiid": "B000A9JTLD", "classify": "超市", "address": "北京市昌平区小汤山镇后牛坊村160号", "tel": "010-58438768", "star_level": null }, "geometry": { "type": "Point", "coordinates": [ 116.381859472990044, 40.193860083818436 ] } },
{ "type": "Feature", "properties": { "name": "世纪华联超市(香屯店)", "poiid": "B000A8ZKI1", "classify": "超市", "address": "北京市昌平区兴香路兴寿镇香屯村", "tel": "13520810372", "star_level": null }, "geometry": { "type": "Point", "coordinates": [ 116.402365202307706, 40.19349634349345 ] } },
{ "type": "Feature", "properties": { "name": "新世纪商城(兴香路)", "poiid": "B000A8ZKQ9", "classify": "超市", "address": "北京市昌平区兴香路南50米", "tel": null, "star_level": null }, "geometry": { "type": "Point", "coordinates": [ 116.404158309698119, 40.19360700964927 ] } },
{ "type": "Feature", "properties": { "name": "世纪华联超市(后礼务便利店)", "poiid": "B000A8XP7E", "classify": "超市", "address": "北京市顺义区北小营", "tel": null, "star_level": null }, "geometry": { "type": "Point", "coordinates": [ 116.704474450349835, 40.19281460404396 ] } },
{ "type": "Feature", "properties": { "name": "海福平价超市", "poiid": "B000A8XTRF", "classify": "超市", "address": "北京市顺义区北小营镇西府村", "tel": null, "star_level": null }, "geometry": { "type": "Point", "coordinates": [ 116.758533819913879, 40.193678203821193 ] } },
{ "type": "Feature", "properties": { "name": "龙赐红福超市", "poiid": "B0FFJKISGY", "classify": "超市", "address": "北京市顺义区庙前街与西北街交叉口东北50米", "tel": null, "star_level": null }, "geometry": { "type": "Point", "coordinates": [ 116.807102178335214, 40.192091058492665 ] } },
{ "type": "Feature", "properties": { "name": "北京张瑞青百货商店", "poiid": "B0FFHZE7FS", "classify": "超市", "address": "北京市平谷区峪口镇西樊各庄村西樊路万家福乐超市(与西坨路0交叉点)", "tel": null, "star_level": null }, "geometry": { "type": "Point", "coordinates": [ 116.953470582962041, 40.190946264266977 ] } },
{ "type": "Feature", "properties": { "name": "聚客隆超市(宏哈路)", "poiid": "B000A8XMXA", "classify": "超市", "address": "北京市昌平区马池口", "tel": null, "star_level": null }, "geometry": { "type": "Point", "coordinates": [ 116.198150740861905, 40.189390276670451 ] } },
{ "type": "Feature", "properties": { "name": "世纪华联超市(张各庄店)", "poiid": "B0FFFZM2LU", "classify": "超市", "address": "北京市昌平区南百路与张各庄北街交叉口北100米", "tel": "13699123988", "star_level": null }, "geometry": { "type": "Point", "coordinates": [ 116.280077257156393, 40.188350381851194 ] } },
{ "type": "Feature", "properties": { "name": "日月升超市", "poiid": "B000A8Y9HW", "classify": "超市", "address": "北京市平谷区峪口西大街1号", "tel": null, "star_level": null }, "geometry": { "type": "Point", "coordinates": [ 117.002451406717313, 40.188724476099011 ] } },
{ "type": "Feature", "properties": { "name": "佳联发超市", "poiid": "B000A88574", "classify": "超市", "address": "北京市平谷区峪口镇峪阳东路", "tel": null, "star_level": null }, "geometry": { "type": "Point", "coordinates": [ 117.007517198324223, 40.188266686201089 ] } },
{ "type": "Feature", "properties": { "name": "永军平旺超市", "poiid": "B000A95CPD", "classify": "超市", "address": "北京市平谷区北山路与山东庄环路交叉口西50米", "tel": "010-60930780;13716217048", "star_level": null }, "geometry": { "type": "Point", "coordinates": [ 117.15097043395042, 40.187901717424396 ] } },
{ "type": "Feature", "properties": { "name": "金客隆超市(张各庄村店)", "poiid": "B000A8YA0N", "classify": "超市", "address": "北京市昌平区南邵镇南百路张各庄文体广场南350米", "tel": null, "star_level": null }, "geometry": { "type": "Point", "coordinates": [ 116.280100257396725, 40.18724424123765 ] } },
{ "type": "Feature", "properties": { "name": "物良美购物中心(兵营路)", "poiid": "B0FFFADU39", "classify": "超市", "address": "北京市顺义区京密路与兵营路交叉口东北100米附近", "tel": null, "star_level": null }, "geometry": { "type": "Point", "coordinates": [ 116.636456928849242, 40.187469276785862 ] } },
{ "type": "Feature", "properties": { "name": "聚源鑫泽便利店", "poiid": "B000A80SPO", "classify": "超市", "address": "北京市顺义区前怡路中共前礼务村党支部委员会西", "tel": null, "star_level": null }, "geometry": { "type": "Point", "coordinates": [ 116.705601556301133, 40.187858283519731 ] } },
{ "type": "Feature", "properties": { "name": "家和·快乐购生活超市", "poiid": "B0FFHHMKHZ", "classify": "超市", "address": "北京市顺义区北小营镇后鲁各庄村福康路7号", "tel": null, "star_level": null }, "geometry": { "type": "Point", "coordinates": [ 116.730982216596601, 40.187505265474314 ] } },
{ "type": "Feature", "properties": { "name": "金海超市(胡陡路店)", "poiid": "B000A85YQ4", "classify": "超市", "address": "北京市平谷区金海湖镇上宅西路1号金海湖路口", "tel": null, "star_level": null }, "geometry": { "type": "Point", "coordinates": [ 117.29174826085567, 40.187919767498968 ] } },
{ "type": "Feature", "properties": { "name": "百姓人家超市", "poiid": "B000A87VTV", "classify": "超市", "address": "北京市昌平区马池口镇红冶钢厂家属楼对面", "tel": null, "star_level": null }, "geometry": { "type": "Point", "coordinates": [ 116.178636690378198, 40.183894072771068 ] } },
{ "type": "Feature", "properties": { "name": "红客隆超市", "poiid": "B000A8ZKO2", "classify": "超市", "address": "北京市昌平区马池口镇白浮满白路开关厂公交站", "tel": null, "star_level": null }, "geometry": { "type": "Point", "coordinates": [ 116.237802454233162, 40.184070409536361 ] } },
{ "type": "Feature", "properties": { "name": "华联生活超市(白浮店)", "poiid": "B000A8ZJYJ", "classify": "超市", "address": "北京市昌平区白浮村190号华联购物中心", "tel": null, "star_level": null }, "geometry": { "type": "Point", "coordinates": [ 116.241093393564228, 40.184033497571946 ] } },
{ "type": "Feature", "properties": { "name": "中胡家务平价超市", "poiid": "B000A7RDQP", "classify": "超市", "address": "北京市平谷区王辛庄", "tel": "010-89959285", "star_level": null }, "geometry": { "type": "Point", "coordinates": [ 117.117828919887529, 40.184967339038849 ] } },
{ "type": "Feature", "properties": { "name": "新世纪商城", "poiid": "B0FFF5ZDER", "classify": "超市", "address": "北京市昌平区马池口北小营村", "tel": null, "star_level": null }, "geometry": { "type": "Point", "coordinates": [ 116.156823960542681, 40.182816227674479 ] } },
{ "type": "Feature", "properties": { "name": "吉利福超市", "poiid": "B000A8XR5S", "classify": "超市", "address": "北京市昌平区马池口镇北小营村91宾馆", "tel": null, "star_level": null }, "geometry": { "type": "Point", "coordinates": [ 116.159631741046923, 40.182493259906764 ] } },
{ "type": "Feature", "properties": { "name": "新世纪超市(231店)", "poiid": "B000A8ZJFQ", "classify": "超市", "address": "北京市昌平区南邵镇姜屯村中街36号", "tel": "13311299584", "star_level": null }, "geometry": { "type": "Point", "coordinates": [ 116.258661497831355, 40.182202359437952 ] } },
{ "type": "Feature", "properties": { "name": "世纪华联超市(鼓楼东大街店)", "poiid": "B000A8ZJDK", "classify": "超市", "address": "北京市昌平区姜屯村中街29号", "tel": null, "star_level": null }, "geometry": { "type": "Point", "coordinates": [ 116.257341818213476, 40.181886209845544 ] } },
{ "type": "Feature", "properties": { "name": "北京顺亿红超市", "poiid": "B000A9QP63", "classify": "超市", "address": "北京市顺义区南陈路与姚店路交叉口南150米", "tel": null, "star_level": null }, "geometry": { "type": "Point", "coordinates": [ 116.607838456034656, 40.181386819481858 ] } },
{ "type": "Feature", "properties": { "name": "小好超市", "poiid": "B0FFI0S1LU", "classify": "超市", "address": "北京市平谷区王辛庄镇放光村城北水乡3号楼", "tel": null, "star_level": null }, "geometry": { "type": "Point", "coordinates": [ 117.071549009084691, 40.181253005266186 ] } },
{ "type": "Feature", "properties": { "name": "世纪华联超市(东古店)", "poiid": "B000A8WDNV", "classify": "超市", "address": "北京市平谷区北山路与平程路交叉口西北50米", "tel": null, "star_level": null }, "geometry": { "type": "Point", "coordinates": [ 117.104506956338867, 40.18069599986076 ] } },
{ "type": "Feature", "properties": { "name": "新世纪商城(富来宫温泉公寓南)", "poiid": "B0FFFT90UV", "classify": "超市", "address": "北京市昌平区迎宾路与龙脉东路交叉口东南100米", "tel": "13121921998", "star_level": null }, "geometry": { "type": "Point", "coordinates": [ 116.395554988980294, 40.177718085646617 ] } },
{ "type": "Feature", "properties": { "name": "世纪华联超市(南官庄店)", "poiid": "B000AA14TR", "classify": "超市", "address": "北京市昌平区小汤山镇南官庄村88号", "tel": null, "star_level": null }, "geometry": { "type": "Point", "coordinates": [ 116.457684442996992, 40.178629877567303 ] } },
{ "type": "Feature", "properties": { "name": "华联生活超市", "poiid": "B0FFJIXKDK", "classify": "超市", "address": "北京市昌平区赖西路南50米", "tel": null, "star_level": null }, "geometry": { "type": "Point", "coordinates": [ 116.472234858274476, 40.179024709463121 ] } },
{ "type": "Feature", "properties": { "name": "北京田莉莉超市", "poiid": "B000A9JULE", "classify": "超市", "address": "北京市昌平区赖马庄村临121-2号", "tel": "010-61711339", "star_level": null }, "geometry": { "type": "Point", "coordinates": [ 116.472334450483316, 40.178502429723736 ] } },
{ "type": "Feature", "properties": { "name": "旺林阁超市", "poiid": "B000A87ZQC", "classify": "超市", "address": "北京市顺义区南陈路西50米", "tel": null, "star_level": null }, "geometry": { "type": "Point", "coordinates": [ 116.607533849477761, 40.178804732561119 ] } },
{ "type": "Feature", "properties": { "name": "北京胡庄胜达超市", "poiid": "B000A8XPUP", "classify": "超市", "address": "北京市平谷区金海湖", "tel": null, "star_level": null }, "geometry": { "type": "Point", "coordinates": [ 117.253392939567561, 40.178984436988827 ] } },
{ "type": "Feature", "properties": { "name": "世纪华联超市(葛村店)", "poiid": "B000A87XMA", "classify": "超市", "address": "北京市昌平区马池口", "tel": null, "star_level": null }, "geometry": { "type": "Point", "coordinates": [ 116.119180681705501, 40.177256166934967 ] } },
{ "type": "Feature", "properties": { "name": "物美大卖场(小汤山店)", "poiid": "B0FFFADNL0", "classify": "超市", "address": "北京市昌平区小汤山镇大柳树村187号(近七天酒店)", "tel": "010-61718828;010-88258650;4001016016", "star_level": null }, "geometry": { "type": "Point", "coordinates": [ 116.398316513299932, 40.175299197435379 ] } },
{ "type": "Feature", "properties": { "name": "美鑫超市", "poiid": "B000A8UQZ8", "classify": "超市", "address": "北京市顺义区杨镇二街", "tel": null, "star_level": null }, "geometry": { "type": "Point", "coordinates": [ 116.905245554447191, 40.175790235996246 ] } },
{ "type": "Feature", "properties": { "name": "世纪家家福超市(葫芦河村店)", "poiid": "B000AA1570", "classify": "超市", "address": "北京市昌平区文明路东50米", "tel": null, "star_level": null }, "geometry": { "type": "Point", "coordinates": [ 116.409526137113573, 40.173137208223338 ] } },
{ "type": "Feature", "properties": { "name": "世纪华联超市(常兴庄店)", "poiid": "B0FFG69QU5", "classify": "超市", "address": "北京市昌平区小汤山镇常兴庄村常兴家园底商三号", "tel": "13801336329;13810664722", "star_level": null }, "geometry": { "type": "Point", "coordinates": [ 116.414373527765292, 40.174935735464089 ] } },
{ "type": "Feature", "properties": { "name": "百旺超市(顺沙路辅路)", "poiid": "B000A9QZFU", "classify": "超市", "address": "北京市昌平区小汤山镇赴任辛庄44号", "tel": null, "star_level": null }, "geometry": { "type": "Point", "coordinates": [ 116.433158257007619, 40.174881045818324 ] } },
{ "type": "Feature", "properties": { "name": "世纪金龙生活超市", "poiid": "B000A85TF7", "classify": "超市", "address": "北京市昌平区沟流路与顺沙路交叉口西南50米", "tel": "010-89766545;13521320007", "star_level": null }, "geometry": { "type": "Point", "coordinates": [ 116.458488429784779, 40.174706891775131 ] } },
{ "type": "Feature", "properties": { "name": "鑫隆超市", "poiid": "B0FFFWGKCU", "classify": "超市", "address": "北京市顺义区新华大街与高下路交叉口西南50米", "tel": "13701368039", "star_level": null }, "geometry": { "type": "Point", "coordinates": [ 116.485704313516635, 40.1735624063015 ] } },
{ "type": "Feature", "properties": { "name": "爱家园购物中心", "poiid": "B000A9PQIT", "classify": "超市", "address": "北京市顺义区六村后街39号", "tel": null, "star_level": null }, "geometry": { "type": "Point", "coordinates": [ 116.503977354764942, 40.174753352403656 ] } },
{ "type": "Feature", "properties": { "name": "北京鹏立华超市", "poiid": "B000A9PP2N", "classify": "超市", "address": "北京市顺义区马坡镇马卷村南大街7号", "tel": null, "star_level": null }, "geometry": { "type": "Point", "coordinates": [ 116.617015204429634, 40.173981480598457 ] } },
{ "type": "Feature", "properties": { "name": "世纪华联超市(流村店)", "poiid": "B000A87Y03", "classify": "超市", "address": "北京市昌平区流村镇北流村316号", "tel": null, "star_level": null }, "geometry": { "type": "Point", "coordinates": [ 116.062022079229365, 40.171872018575669 ] } },
{ "type": "Feature", "properties": { "name": "华联超市", "poiid": "B0FFGDEDCA", "classify": "超市", "address": "北京市昌平区马横路", "tel": null, "star_level": null }, "geometry": { "type": "Point", "coordinates": [ 116.18766589999197, 40.171510494947441 ] } },
{ "type": "Feature", "properties": { "name": "天天乐购超市", "poiid": "B0FFGNX3XA", "classify": "超市", "address": "北京市昌平区", "tel": "18210122725", "star_level": null }, "geometry": { "type": "Point", "coordinates": [ 116.192232744693769, 40.171857941150662 ] } },
{ "type": "Feature", "properties": { "name": "顺秀林超市", "poiid": "B0FFFW3XGF", "classify": "超市", "address": "北京市顺义区高丽营镇顺沙路高下路往东50米", "tel": null, "star_level": null }, "geometry": { "type": "Point", "coordinates": [ 116.486523947715767, 40.171798806190495 ] } },
{ "type": "Feature", "properties": { "name": "世纪华联超市", "poiid": "B0FFH1411P", "classify": "超市", "address": "北京市顺义区高丽营镇南郎中村村委会往西100米", "tel": "13439972574", "star_level": null }, "geometry": { "type": "Point", "coordinates": [ 116.545676001310341, 40.171913238763807 ] } },
{ "type": "Feature", "properties": { "name": "北京龙岩春光超市", "poiid": "B000A9PQG5", "classify": "超市", "address": "北京市顺义区马卷村南大街81号", "tel": "18801189092", "star_level": null }, "geometry": { "type": "Point", "coordinates": [ 116.609661275148397, 40.173135789632809 ] } },
{ "type": "Feature", "properties": { "name": "百旺超市", "poiid": "B0FFFE71TQ", "classify": "超市", "address": "北京市顺义区小汤山镇顺沙路9号赴任辛庄", "tel": null, "star_level": null }, "geometry": { "type": "Point", "coordinates": [ 116.491532751321785, 40.169601291418076 ] } },
{ "type": "Feature", "properties": { "name": "青田侨乡超市(南独乐河路)", "poiid": "B000A8XP7Q", "classify": "超市", "address": "北京市平谷区南独乐河镇同乐路23号", "tel": "010-60926687", "star_level": null }, "geometry": { "type": "Point", "coordinates": [ 117.216070064306251, 40.169570063352595 ] } },
{ "type": "Feature", "properties": { "name": "华联生活超市", "poiid": "B0FFFDCEIP", "classify": "超市", "address": "北京市昌平区沙屯路", "tel": null, "star_level": null }, "geometry": { "type": "Point", "coordinates": [ 116.24356170892716, 40.165146105289466 ] } },
{ "type": "Feature", "properties": { "name": "北京流村秀芹综合超市", "poiid": "B000A8XMGX", "classify": "超市", "address": "北京市昌平区北葛路北50米", "tel": null, "star_level": null }, "geometry": { "type": "Point", "coordinates": [ 116.087657836079629, 40.164197486042966 ] } },
{ "type": "Feature", "properties": { "name": "新世纪商城(土西路)", "poiid": "B000A85ZTK", "classify": "超市", "address": "北京市昌平区土西路与西马坊路交叉口西150米", "tel": null, "star_level": null }, "geometry": { "type": "Point", "coordinates": [ 116.135983934998521, 40.162838118672369 ] } },
{ "type": "Feature", "properties": { "name": "北京德夏隆超市", "poiid": "B000A9QR56", "classify": "超市", "address": "北京市顺义区", "tel": null, "star_level": null }, "geometry": { "type": "Point", "coordinates": [ 116.533732615709312, 40.162944425344477 ] } },
{ "type": "Feature", "properties": { "name": "华旭岩超市", "poiid": "B000A85Y9S", "classify": "超市", "address": "北京市平谷区大兴庄", "tel": null, "star_level": null }, "geometry": { "type": "Point", "coordinates": [ 117.067227628827098, 40.164243320822706 ] } },
{ "type": "Feature", "properties": { "name": "新世纪福华联超市(沙屯路店)", "poiid": "B0FFG4TSWB", "classify": "超市", "address": "北京市昌平区西沙屯村顺通南街19号1单元", "tel": "010-57457669;15201351776", "star_level": null }, "geometry": { "type": "Point", "coordinates": [ 116.243447624444968, 40.161755203008653 ] } },
{ "type": "Feature", "properties": { "name": "大众超市", "poiid": "B0FFFYVF1P", "classify": "超市", "address": "北京市顺义区庙尔卷村前街与花园路交叉口东南150米", "tel": null, "star_level": null }, "geometry": { "type": "Point", "coordinates": [ 116.608031538724902, 40.160900474786771 ] } },
{ "type": "Feature", "properties": { "name": "顺民生活超市", "poiid": "B000A8XNPG", "classify": "超市", "address": "北京市顺义区杨镇三街顺鑫澜庭小区(徐府火锅)对面", "tel": "010-61454637;15010028587", "star_level": null }, "geometry": { "type": "Point", "coordinates": [ 116.814252226352693, 40.161158845424652 ] } },
{ "type": "Feature", "properties": { "name": "北京家旺乐福超市", "poiid": "B000A8XKRA", "classify": "超市", "address": "北京市顺义区高白路与九厂路路口东", "tel": null, "star_level": null }, "geometry": { "type": "Point", "coordinates": [ 116.495432208776492, 40.159722536802292 ] } },
{ "type": "Feature", "properties": { "name": "北京玉营超市", "poiid": "B000A9QP3T", "classify": "超市", "address": "北京市顺义区东江头二条南彩镇东江头村村民委员会", "tel": "15701189870", "star_level": null }, "geometry": { "type": "Point", "coordinates": [ 116.772869762182239, 40.160334721803665 ] } },
{ "type": "Feature", "properties": { "name": "云芬超市", "poiid": "B0FFFW6NOW", "classify": "超市", "address": "北京市顺义区南彩镇东江头村二路6号", "tel": null, "star_level": null }, "geometry": { "type": "Point", "coordinates": [ 116.774198192358028, 40.159496694803238 ] } },
{ "type": "Feature", "properties": { "name": "爱林平价超市", "poiid": "B000A87VQI", "classify": "超市", "address": "北京市顺义区杨镇三街顺鑫澜庭小区对面", "tel": "010-61453291", "star_level": null }, "geometry": { "type": "Point", "coordinates": [ 116.814397531747829, 40.160499240159993 ] } },
{ "type": "Feature", "properties": { "name": "青田侨乡海乐超市", "poiid": "B000A8VTR3", "classify": "超市", "address": "北京市平谷区王辛庄小辛寨东大街", "tel": null, "star_level": null }, "geometry": { "type": "Point", "coordinates": [ 117.096251059770594, 40.159354666471472 ] } },
{ "type": "Feature", "properties": { "name": "世纪华联超市(齐各庄店)", "poiid": "B000A8XDIS", "classify": "超市", "address": "北京市平谷区王辛庄镇齐各庄村东路102号", "tel": null, "star_level": null }, "geometry": { "type": "Point", "coordinates": [ 117.104425979852664, 40.158867095708842 ] } },
{ "type": "Feature", "properties": { "name": "苏美丽超市", "poiid": "B000A8XQOU", "classify": "超市", "address": "北京市顺义区江头路与洼东路交叉口南100米", "tel": null, "star_level": null }, "geometry": { "type": "Point", "coordinates": [ 116.776305558681457, 40.157816488742824 ] } },
{ "type": "Feature", "properties": { "name": "万隆发超市(衙门村店)", "poiid": "B0FFFO669F", "classify": "超市", "address": "北京市顺义区京密路与南陈路交叉口串好生态烧烤旁", "tel": null, "star_level": null }, "geometry": { "type": "Point", "coordinates": [ 116.612696893811219, 40.155077347159391 ] } },
{ "type": "Feature", "properties": { "name": "隆华购物中心(河桥路)", "poiid": "B000A8ZKEQ", "classify": "超市", "address": "北京市顺义区牛栏山后晏子村村口(京东旁)", "tel": null, "star_level": null }, "geometry": { "type": "Point", "coordinates": [ 116.725310932397861, 40.155329252481465 ] } },
{ "type": "Feature", "properties": { "name": "宏家福商城", "poiid": "B0FFHTML8G", "classify": "超市", "address": "北京市昌平区马讲路南50米", "tel": null, "star_level": null }, "geometry": { "type": "Point", "coordinates": [ 116.384212499260897, 40.15216865241527 ] } },
{ "type": "Feature", "properties": { "name": "世纪华联超市(马讲路)", "poiid": "B0FFGY41DP", "classify": "超市", "address": "北京市昌平区马讲路东50米", "tel": null, "star_level": null }, "geometry": { "type": "Point", "coordinates": [ 116.397549027204519, 40.152421439886083 ] } },
{ "type": "Feature", "properties": { "name": "金盛福(土沟店)", "poiid": "B0FFFADQGQ", "classify": "超市", "address": "北京市昌平区东小口镇新干线家园一区1号楼1层03", "tel": "13911268333", "star_level": null }, "geometry": { "type": "Point", "coordinates": [ 116.452859776020063, 40.152606036663045 ] } },
{ "type": "Feature", "properties": { "name": "世纪华联超市(闫家营店)", "poiid": "B000AA14TO", "classify": "超市", "address": "北京市顺义区闫家营村国槐大街203号", "tel": null, "star_level": null }, "geometry": { "type": "Point", "coordinates": [ 116.521033965349233, 40.152409652471547 ] } },
{ "type": "Feature", "properties": { "name": "青田联华超市(吉卧店)", "poiid": "B000A8XSIC", "classify": "超市", "address": "北京市平谷区大兴庄", "tel": null, "star_level": null }, "geometry": { "type": "Point", "coordinates": [ 117.030964213609707, 40.153341103792187 ] } },
{ "type": "Feature", "properties": { "name": "天马天超市(平谷南街)", "poiid": "B0FFGYOIQX", "classify": "超市", "address": "北京市平谷区兴谷街道平谷南街园丁居民小区1号楼", "tel": null, "star_level": null }, "geometry": { "type": "Point", "coordinates": [ 117.102207356691366, 40.152454835176471 ] } },
{ "type": "Feature", "properties": { "name": "世纪家家福超市(官道街)", "poiid": "B000ABCOOT", "classify": "超市", "address": "北京市顺义区杨镇三街仿古街68号", "tel": "010-56107916", "star_level": null }, "geometry": { "type": "Point", "coordinates": [ 116.816256105899839, 40.150867741107945 ] } },
{ "type": "Feature", "properties": { "name": "林客隆超市(杨镇府前街)", "poiid": "B000A9JUGN", "classify": "超市", "address": "北京市顺义区府西路与杨镇府前街交叉口西100米", "tel": "15501108717", "star_level": null }, "geometry": { "type": "Point", "coordinates": [ 116.82338761448861, 40.151765815019616 ] } },
{ "type": "Feature", "properties": { "name": "世纪华联超市(杨镇人民法庭北)", "poiid": "B000A88357", "classify": "超市", "address": "北京市顺义区杨镇一街", "tel": null, "star_level": null }, "geometry": { "type": "Point", "coordinates": [ 116.84802275061611, 40.1511014688015 ] } },
{ "type": "Feature", "properties": { "name": "北京顺润客隆超市", "poiid": "B000A85U0B", "classify": "超市", "address": "北京市顺义区赵湘路与顺平路交叉口西南100米", "tel": null, "star_level": null }, "geometry": { "type": "Point", "coordinates": [ 116.903289220333107, 40.151997153759012 ] } },
{ "type": "Feature", "properties": { "name": "北京顺恒同兴超市", "poiid": "B000A9QOW9", "classify": "超市", "address": "北京市顺义区顺平路张镇政府东150米", "tel": null, "star_level": null }, "geometry": { "type": "Point", "coordinates": [ 116.947057700753234, 40.150601179003729 ] } },
{ "type": "Feature", "properties": { "name": "万里通超市", "poiid": "B0FFG8G8L7", "classify": "超市", "address": "北京市海淀区上庄双塔村404号", "tel": null, "star_level": null }, "geometry": { "type": "Point", "coordinates": [ 116.185733318924903, 40.14867483437061 ] } },
{ "type": "Feature", "properties": { "name": "顺鑫超市", "poiid": "B0FFGCRFT6", "classify": "超市", "address": "北京市顺义区顺平路99号", "tel": null, "star_level": null }, "geometry": { "type": "Point", "coordinates": [ 116.81682969331743, 40.148313210010542 ] } },
{ "type": "Feature", "properties": { "name": "华福万家购物中心", "poiid": "B000A8XKD3", "classify": "超市", "address": "北京市顺义区杨镇顺平路北侧1幢", "tel": "010-61418178", "star_level": null }, "geometry": { "type": "Point", "coordinates": [ 116.82734739899638, 40.150117818117153 ] } },
{ "type": "Feature", "properties": { "name": "张镇丰盛超市", "poiid": "B000A7R7TD", "classify": "超市", "address": "北京市顺义区张镇", "tel": null, "star_level": null }, "geometry": { "type": "Point", "coordinates": [ 116.939626112580328, 40.148471069931986 ] } },
{ "type": "Feature", "properties": { "name": "隆华购物中心(新星店)", "poiid": "B000A8XSLA", "classify": "超市", "address": "北京市顺义区张镇建新一街1号", "tel": "010-61489513", "star_level": null }, "geometry": { "type": "Point", "coordinates": [ 116.945536631345732, 40.150077749490734 ] } },
{ "type": "Feature", "properties": { "name": "旺春光超市", "poiid": "B000A87AO8", "classify": "超市", "address": "北京市平谷区北二环与和平街中路交叉口东北100米", "tel": null, "star_level": null }, "geometry": { "type": "Point", "coordinates": [ 117.118673363924017, 40.149144631624225 ] } },
{ "type": "Feature", "properties": { "name": "北京海慧利蒙佳超市", "poiid": "B000A85RXT", "classify": "超市", "address": "北京市平谷区新平北路1号", "tel": null, "star_level": null }, "geometry": { "type": "Point", "coordinates": [ 117.128675200939171, 40.1494521164894 ] } },
{ "type": "Feature", "properties": { "name": "世纪华联超市(八口店)", "poiid": "B000A9V77N", "classify": "超市", "address": "北京市昌平区016县道附近", "tel": "18771714258", "star_level": null }, "geometry": { "type": "Point", "coordinates": [ 116.162153518199943, 40.146067907810206 ] } },
{ "type": "Feature", "properties": { "name": "贺茹超市(上东廓嘉悦店)", "poiid": "B000A881KI", "classify": "超市", "address": "北京市昌平区百善镇上东廓村259号乙", "tel": "010-61737299", "star_level": null }, "geometry": { "type": "Point", "coordinates": [ 116.315968673229207, 40.146326754093167 ] } },
{ "type": "Feature", "properties": { "name": "发达超市", "poiid": "B000A9QPNP", "classify": "超市", "address": "北京市顺义区高丽营", "tel": "010-69497628", "star_level": null }, "geometry": { "type": "Point", "coordinates": [ 116.556248434782049, 40.147645002603539 ] } },
{ "type": "Feature", "properties": { "name": "海空超市", "poiid": "B000A7P87A", "classify": "超市", "address": "北京市顺义区良山西路133号附近", "tel": null, "star_level": null }, "geometry": { "type": "Point", "coordinates": [ 116.915247882008558, 40.147999476790432 ] } },
{ "type": "Feature", "properties": { "name": "北京宾意超市", "poiid": "B000A9QO9T", "classify": "超市", "address": "北京市顺义区建新一路", "tel": "010-61483998", "star_level": null }, "geometry": { "type": "Point", "coordinates": [ 116.945879286527628, 40.146968442201612 ] } },
{ "type": "Feature", "properties": { "name": "四季快捷超市", "poiid": "B000A9JT6Z", "classify": "超市", "address": "北京市顺义区老张孙路宝宝乐幼儿园北200米", "tel": null, "star_level": null }, "geometry": { "type": "Point", "coordinates": [ 116.945689054727552, 40.147655380964281 ] } },
{ "type": "Feature", "properties": { "name": "世纪华联超市(太安街店)", "poiid": "B000A8X8XA", "classify": "超市", "address": "北京市平谷区太安街91号大市场", "tel": null, "star_level": null }, "geometry": { "type": "Point", "coordinates": [ 117.112506955265999, 40.146832633614537 ] } },
{ "type": "Feature", "properties": { "name": "北京百顺营利超市", "poiid": "B000A8XQON", "classify": "超市", "address": "北京市平谷区南独乐河镇甘营大队甘营中街", "tel": null, "star_level": null }, "geometry": { "type": "Point", "coordinates": [ 117.215332239866257, 40.146798008680335 ] } },
{ "type": "Feature", "properties": { "name": "亿旺商场", "poiid": "B0FFFAKEF3", "classify": "超市", "address": "北京市昌平区于善街与032县道交叉口东北150米", "tel": "13691076331", "star_level": null }, "geometry": { "type": "Point", "coordinates": [ 116.285645034313205, 40.145292384624483 ] } },
{ "type": "Feature", "properties": { "name": "杜兰得超市", "poiid": "B000A85TZB", "classify": "超市", "address": "北京市顺义区南法信西杜兰村", "tel": "13466497038", "star_level": null }, "geometry": { "type": "Point", "coordinates": [ 116.588156831264513, 40.144697902202608 ] } },
{ "type": "Feature", "properties": { "name": "世纪华联超市(大兴庄中路店)", "poiid": "B000A8UH97", "classify": "超市", "address": "北京市平谷区顺平路大兴庄卫生院西150米", "tel": null, "star_level": null }, "geometry": { "type": "Point", "coordinates": [ 117.046409875154495, 40.145461286306386 ] } },
{ "type": "Feature", "properties": { "name": "诚信隆超市", "poiid": "B000A9QPC7", "classify": "超市", "address": "北京市昌平区上庄北路与西坨村路交叉口南150米", "tel": "13671301289", "star_level": null }, "geometry": { "type": "Point", "coordinates": [ 116.217997869253168, 40.141827238798143 ] } },
{ "type": "Feature", "properties": { "name": "华联购物中心(文丽娟店)", "poiid": "B0FFJGFGWV", "classify": "超市", "address": "北京市顺义区南陈路与西海洪二街交叉口西北50米", "tel": null, "star_level": null }, "geometry": { "type": "Point", "coordinates": [ 116.612317274808873, 40.143348633050934 ] } },
{ "type": "Feature", "properties": { "name": "北京铭辉联盟超市", "poiid": "B0FFJHBXNZ", "classify": "超市", "address": "北京市顺义区南法信镇园田路", "tel": null, "star_level": null }, "geometry": { "type": "Point", "coordinates": [ 116.615068267583837, 40.14373963952066 ] } },
{ "type": "Feature", "properties": { "name": "宾朋超市", "poiid": "B0FFGIGK3I", "classify": "超市", "address": "北京市顺义区东兴三街11号", "tel": null, "star_level": null }, "geometry": { "type": "Point", "coordinates": [ 116.618817175030742, 40.142191835045821 ] } },
{ "type": "Feature", "properties": { "name": "世纪家家福购物广场", "poiid": "B000A9V7QV", "classify": "超市", "address": "北京市昌平区阳坊村西大街6号", "tel": "010-69760522", "star_level": null }, "geometry": { "type": "Point", "coordinates": [ 116.135337101221097, 40.138818637132644 ] } },
{ "type": "Feature", "properties": { "name": "世纪华联超市(阳坊店)", "poiid": "B000A881DY", "classify": "超市", "address": "北京市昌平区阳坊镇南阳路路西53号第二间", "tel": "13436457725", "star_level": null }, "geometry": { "type": "Point", "coordinates": [ 116.133884333372123, 40.138946379423146 ] } },
{ "type": "Feature", "properties": { "name": "晨敏平价超市", "poiid": "B000A9QQMO", "classify": "超市", "address": "北京市昌平区中顺街28号", "tel": "13436511536", "star_level": null }, "geometry": { "type": "Point", "coordinates": [ 116.139787505865087, 40.139183493852613 ] } },
{ "type": "Feature", "properties": { "name": "北京慧�超市", "poiid": "B000A8XN5E", "classify": "超市", "address": "北京市顺义区南法信", "tel": null, "star_level": null }, "geometry": { "type": "Point", "coordinates": [ 116.602651734352122, 40.138085198402401 ] } },
{ "type": "Feature", "properties": { "name": "聚鑫源超市", "poiid": "B0FFGZZHPZ", "classify": "超市", "address": "北京市顺义区南彩镇南彩村彩苑小区12号楼旁", "tel": null, "star_level": null }, "geometry": { "type": "Point", "coordinates": [ 116.745590995550145, 40.139416018724432 ] } },
{ "type": "Feature", "properties": { "name": "世纪华联生活超市", "poiid": "B0FFFE096I", "classify": "超市", "address": "北京市顺义区中心街与木北路交叉口西南50米", "tel": null, "star_level": null }, "geometry": { "type": "Point", "coordinates": [ 116.82153188824654, 40.137988907098773 ] } },
{ "type": "Feature", "properties": { "name": "明华超市(李庄路)", "poiid": "B000A8XKGV", "classify": "超市", "address": "北京市昌平区地区万家灯火装饰城北门", "tel": null, "star_level": null }, "geometry": { "type": "Point", "coordinates": [ 116.255165496468564, 40.137278912663461 ] } },
{ "type": "Feature", "properties": { "name": "山水云间生活超市", "poiid": "B0FFIBP9UM", "classify": "超市", "address": "北京市昌平区032县道西100米", "tel": "18367610056", "star_level": null }, "geometry": { "type": "Point", "coordinates": [ 116.266629366874696, 40.137514262199403 ] } },
{ "type": "Feature", "properties": { "name": "百善镇聚友超市", "poiid": "B0FFG2SSRI", "classify": "超市", "address": "北京市昌平区X003(秦上路)", "tel": "18910881156", "star_level": null }, "geometry": { "type": "Point", "coordinates": [ 116.337633866071712, 40.135807586908342 ] } },
{ "type": "Feature", "properties": { "name": "世纪华联超市(信兴大街店)", "poiid": "B000A8UQFK", "classify": "超市", "address": "北京市顺义区北法信信兴大街46号", "tel": null, "star_level": null }, "geometry": { "type": "Point", "coordinates": [ 116.605145099163082, 40.137340710163116 ] } },
{ "type": "Feature", "properties": { "name": "世纪华联超市(水坡店)", "poiid": "B000AA1541", "classify": "超市", "address": "北京市顺义区高丽营镇水坡村", "tel": "13671027212", "star_level": null }, "geometry": { "type": "Point", "coordinates": [ 116.528676675558103, 40.134404166936875 ] } },
{ "type": "Feature", "properties": { "name": "世纪华联超市(东马各庄)", "poiid": "B000A882R1", "classify": "超市", "address": "北京市顺义区高丽营镇东马各庄村开发区西街3号", "tel": null, "star_level": null }, "geometry": { "type": "Point", "coordinates": [ 116.562923761010197, 40.134176281094554 ] } },
{ "type": "Feature", "properties": { "name": "鑫绿都生活超市", "poiid": "B000A8UG21", "classify": "超市", "address": "北京市顺义区", "tel": "13601156560", "star_level": null }, "geometry": { "type": "Point", "coordinates": [ 116.649440733194382, 40.133720937967297 ] } },
{ "type": "Feature", "properties": { "name": "世纪华联超市", "poiid": "B0FFFV3ERW", "classify": "超市", "address": "北京市顺义区南彩镇后俸伯村光明街7号", "tel": "13683140321", "star_level": null }, "geometry": { "type": "Point", "coordinates": [ 116.698750921487829, 40.134724959135056 ] } },
{ "type": "Feature", "properties": { "name": "世纪华联超市(利炳源店)", "poiid": "B000A9R37Z", "classify": "超市", "address": "北京市顺义区高丽营镇幸福街43号", "tel": "13691248645", "star_level": null }, "geometry": { "type": "Point", "coordinates": [ 116.700311039686198, 40.134585100412366 ] } },
{ "type": "Feature", "properties": { "name": "世纪华联超市(南彩爱婴卫生院西)(装修中)", "poiid": "B000A85WNT", "classify": "超市", "address": "北京市顺义区306省道(南彩爱婴卫生院西)", "tel": null, "star_level": null }, "geometry": { "type": "Point", "coordinates": [ 116.741010074615474, 40.134309902191163 ] } },
{ "type": "Feature", "properties": { "name": "新世纪商城(北京众仁堂医院西南)", "poiid": "B000A8XNFN", "classify": "超市", "address": "北京市昌平区北七家", "tel": null, "star_level": null }, "geometry": { "type": "Point", "coordinates": [ 116.427095991373051, 40.132992783784871 ] } },
{ "type": "Feature", "properties": { "name": "华联生活超市(八仙庄南大街)", "poiid": "B0FFFAD6PF", "classify": "超市", "address": "北京市昌平区东北路与八仙庄南大街交叉口西南100米", "tel": null, "star_level": null }, "geometry": { "type": "Point", "coordinates": [ 116.431130784749996, 40.132196549177181 ] } },
{ "type": "Feature", "properties": { "name": "家和·快乐购生活超市", "poiid": "B0FFG4ZTP7", "classify": "超市", "address": "北京市顺义区南湖二街13", "tel": "18901231352", "star_level": null }, "geometry": { "type": "Point", "coordinates": [ 116.557924605608008, 40.13306581616402 ] } },
{ "type": "Feature", "properties": { "name": "涵临佳乐百货配送", "poiid": "B0FFJRU8EJ", "classify": "超市", "address": "北京市顺义区东六环附近", "tel": "13718145918;13661334828", "star_level": null }, "geometry": { "type": "Point", "coordinates": [ 116.618871775865557, 40.131809195280084 ] } },
{ "type": "Feature", "properties": { "name": "世纪华联超市(马昌营店)", "poiid": "B0FFFYPN6T", "classify": "超市", "address": "北京市平谷区密三路马昌营镇政府东南100米", "tel": null, "star_level": null }, "geometry": { "type": "Point", "coordinates": [ 117.016373035907776, 40.132044770717627 ] } },
{ "type": "Feature", "properties": { "name": "物美超市(京平店)", "poiid": "B0FFK6TJFW", "classify": "超市", "address": "北京市平谷区滨河街道新平南路130号9栋B1层205", "tel": "010-69923558", "star_level": null }, "geometry": { "type": "Point", "coordinates": [ 117.090286176204671, 40.131824409961695 ] } },
{ "type": "Feature", "properties": { "name": "北京天旺源超市", "poiid": "B000A8VTW3", "classify": "超市", "address": "北京市平谷区文发市场西门", "tel": null, "star_level": null }, "geometry": { "type": "Point", "coordinates": [ 117.093594034910211, 40.13281517863274 ] } },
{ "type": "Feature", "properties": { "name": "嘉和物联超市", "poiid": "B0FFFADAP1", "classify": "超市", "address": "北京市平谷区渔阳园田街6号", "tel": "13811514487", "star_level": null }, "geometry": { "type": "Point", "coordinates": [ 117.124080632925029, 40.13245816111565 ] } },
{ "type": "Feature", "properties": { "name": "世纪华联超市(梅所屯路)", "poiid": "B000A8W257", "classify": "超市", "address": "北京市海淀区上庄镇梅所屯村501号", "tel": "010-82490907;13691209174", "star_level": null }, "geometry": { "type": "Point", "coordinates": [ 116.219489706158654, 40.130134130120283 ] } },
{ "type": "Feature", "properties": { "name": "新世纪商城(北七家商场)", "poiid": "B000AAB2BV", "classify": "超市", "address": "北京市昌平区未来城北一街与秦北路交叉口东北150米", "tel": "010-53634770", "star_level": null }, "geometry": { "type": "Point", "coordinates": [ 116.462175040245057, 40.131167931556703 ] } },
{ "type": "Feature", "properties": { "name": "屈臣氏(鑫海韵通百货店)", "poiid": "B000A8X43T", "classify": "超市", "address": "北京市顺义区府前西街1号鑫海韵通百货F1层", "tel": "4008301310;010-69462052", "star_level": null }, "geometry": { "type": "Point", "coordinates": [ 116.644814134836224, 40.129868599176419 ] } },
{ "type": "Feature", "properties": { "name": "北京泰合康超市", "poiid": "B000A884QY", "classify": "超市", "address": "北京市顺义区东路16号顺义区河北村", "tel": null, "star_level": null }, "geometry": { "type": "Point", "coordinates": [ 116.721429744958897, 40.130219660997398 ] } },
{ "type": "Feature", "properties": { "name": "顺达超市(南法信卫生院西北)", "poiid": "B0FFFV5KY9", "classify": "超市", "address": "北京市顺义区南法信地区刘家河村顺余西路1号", "tel": "15801561807", "star_level": null }, "geometry": { "type": "Point", "coordinates": [ 116.603179043531441, 40.128469136953356 ] } },
{ "type": "Feature", "properties": { "name": "迎春超市", "poiid": "B0FFG9NPOM", "classify": "超市", "address": "北京市顺义区南彩镇前薛各庄村十字东街2号", "tel": "13641201465", "star_level": null }, "geometry": { "type": "Point", "coordinates": [ 116.737672441005685, 40.128620326519012 ] } },
{ "type": "Feature", "properties": { "name": "世纪华联超市(后白虎涧店)", "poiid": "B0FFFSB1ZK", "classify": "超市", "address": "北京市昌平区聂各庄路家家乐超市东北侧55米", "tel": "15910974805", "star_level": null }, "geometry": { "type": "Point", "coordinates": [ 116.118621861934685, 40.126193821430206 ] } },
{ "type": "Feature", "properties": { "name": "世纪新华联超市(后章村店)", "poiid": "B000A881QR", "classify": "超市", "address": "北京市海淀区沙阳路后章村车站斜对面", "tel": null, "star_level": null }, "geometry": { "type": "Point", "coordinates": [ 116.178850764036184, 40.125188876390467 ] } },
{ "type": "Feature", "properties": { "name": "世纪华联超市(东沙店)", "poiid": "B0FFG4TW4E", "classify": "超市", "address": "北京市昌平区北七家镇东沙各庄村口向西100米", "tel": null, "star_level": null }, "geometry": { "type": "Point", "coordinates": [ 116.39923836827279, 40.125286055803286 ] } },
{ "type": "Feature", "properties": { "name": "世纪华联超市(东沙社区卫生服务站东)", "poiid": "B000A8XLMK", "classify": "超市", "address": "北京市昌平区北七家镇东沙各庄村鸿昌公寓加油站旁", "tel": "15033233682", "star_level": null }, "geometry": { "type": "Point", "coordinates": [ 116.399078000783931, 40.126582959890357 ] } },
{ "type": "Feature", "properties": { "name": "屈臣氏(新世界百货)", "poiid": "B000A8XAKH", "classify": "超市", "address": "北京市顺义区新顺南大街18号新世界百货F1层", "tel": "4008301310;010-60406112", "star_level": null }, "geometry": { "type": "Point", "coordinates": [ 116.646039947867408, 40.125827187895766 ] } },
{ "type": "Feature", "properties": { "name": "北京晨光西新超市", "poiid": "B000A881I6", "classify": "超市", "address": "北京市顺义区大孙各庄镇赵湘路南(小段村)", "tel": null, "star_level": null }, "geometry": { "type": "Point", "coordinates": [ 116.898862291574488, 40.12564012408258 ] } },
{ "type": "Feature", "properties": { "name": "世纪华联超市(马昌营医院南)", "poiid": "B000A8XTH4", "classify": "超市", "address": "北京市平谷区马昌营村古槐路55号(北京农商银行隔壁)", "tel": null, "star_level": null }, "geometry": { "type": "Point", "coordinates": [ 116.99695339560509, 40.125378519296646 ] } },
{ "type": "Feature", "properties": { "name": "世纪华联生活超市(前章村路店)", "poiid": "B000A881FI", "classify": "超市", "address": "北京市海淀区上庄地区前章村", "tel": null, "star_level": null }, "geometry": { "type": "Point", "coordinates": [ 116.172691973447797, 40.122953609228134 ] } },
{ "type": "Feature", "properties": { "name": "华联生活超市(蓬莱店)", "poiid": "B000A8XTOW", "classify": "超市", "address": "北京市昌平区北七家镇蓬莱公寓门口", "tel": "010-81761636;13581803965", "star_level": null }, "geometry": { "type": "Point", "coordinates": [ 116.408349398374554, 40.123978229761107 ] } },
{ "type": "Feature", "properties": { "name": "北京鲁夏超市", "poiid": "B000A884F4", "classify": "超市", "address": "北京市顺义区幸福街与木北路交叉口西南100米", "tel": null, "star_level": null }, "geometry": { "type": "Point", "coordinates": [ 116.821762907505047, 40.124478952884672 ] } },
{ "type": "Feature", "properties": { "name": "和顺吉祥超市", "poiid": "B000A884OM", "classify": "超市", "address": "北京市平谷区云打路马昌营镇中心幼儿园北200米", "tel": "15910317908", "star_level": null }, "geometry": { "type": "Point", "coordinates": [ 116.997515518665324, 40.124514768123632 ] } },
{ "type": "Feature", "properties": { "name": "华联生活超市(翠北嘉园东南)", "poiid": "B0FFHSFT5B", "classify": "超市", "address": "北京市海淀区上庄东小营北口马加利市场公寓", "tel": null, "star_level": null }, "geometry": { "type": "Point", "coordinates": [ 116.197646844387066, 40.12209036111831 ] } },
{ "type": "Feature", "properties": { "name": "新世纪商城(上庄路店)", "poiid": "B000A8813Z", "classify": "超市", "address": "北京市海淀区上庄镇东小营上庄路沙阳路交接入口", "tel": null, "star_level": null }, "geometry": { "type": "Point", "coordinates": [ 116.205868033170731, 40.121141768693931 ] } },
{ "type": "Feature", "properties": { "name": "顺丰优选(物流园店)", "poiid": "B0FFIRVT3P", "classify": "超市", "address": "北京市顺义区空港物流园六街10号", "tel": "010-69472169", "star_level": null }, "geometry": { "type": "Point", "coordinates": [ 116.586968964338325, 40.122356833219527 ] } },
{ "type": "Feature", "properties": { "name": "英峰荣华超市", "poiid": "B000A882SW", "classify": "超市", "address": "北京市顺义区270乡道南50米", "tel": null, "star_level": null }, "geometry": { "type": "Point", "coordinates": [ 116.85623352110386, 40.121382320523267 ] } },
{ "type": "Feature", "properties": { "name": "西门超市", "poiid": "B0FFJGPYG7", "classify": "超市", "address": "北京市昌平区沙河镇沙阳路24号院北区保利罗兰香谷二期1号楼2单元605", "tel": null, "star_level": null }, "geometry": { "type": "Point", "coordinates": [ 116.260133950710298, 40.119319422245042 ] } },
{ "type": "Feature", "properties": { "name": "超市(国门一号店)", "poiid": "B0FFI6WC1N", "classify": "超市", "address": "北京市顺义区后沙峪镇安平街3号1幢B区6层", "tel": "18238280627", "star_level": null }, "geometry": { "type": "Point", "coordinates": [ 116.554699698090573, 40.119694568514831 ] } },
{ "type": "Feature", "properties": { "name": "恒鑫超市", "poiid": "B0FFGBX4MM", "classify": "超市", "address": "北京市海淀区上庄永泰庄村92号", "tel": null, "star_level": null }, "geometry": { "type": "Point", "coordinates": [ 116.213651497364054, 40.118531758785252 ] } },
{ "type": "Feature", "properties": { "name": "世纪华联超市(后沙涧店)", "poiid": "B000A9V96U", "classify": "超市", "address": "北京市海淀区温阳路25号", "tel": null, "star_level": null }, "geometry": { "type": "Point", "coordinates": [ 116.144524658918385, 40.115148895978919 ] } },
{ "type": "Feature", "properties": { "name": "健美超市", "poiid": "B000A9QQT8", "classify": "超市", "address": "北京市海淀区上庄镇甲屯路北玉河村106号", "tel": null, "star_level": null }, "geometry": { "type": "Point", "coordinates": [ 116.219063581228255, 40.115326331853865 ] } },
{ "type": "Feature", "properties": { "name": "五福超市", "poiid": "B0FFJYRMEH", "classify": "超市", "address": "北京市昌平区豆各庄新村9号", "tel": null, "star_level": null }, "geometry": { "type": "Point", "coordinates": [ 116.299633397459985, 40.116065725684152 ] } },
{ "type": "Feature", "properties": { "name": "北京段美超市", "poiid": "B000A7OW9U", "classify": "超市", "address": "北京市顺义区大孙各庄", "tel": null, "star_level": null }, "geometry": { "type": "Point", "coordinates": [ 116.894981426000584, 40.115596140623111 ] } },
{ "type": "Feature", "properties": { "name": "北华联生活超市(佳客旺店)", "poiid": "B000A8Y9FI", "classify": "超市", "address": "北京市顺义区大孙各庄", "tel": null, "star_level": null }, "geometry": { "type": "Point", "coordinates": [ 116.894813560247428, 40.116023303270353 ] } },
{ "type": "Feature", "properties": { "name": "兴富成超市", "poiid": "B000A7QX2M", "classify": "超市", "address": "北京市平谷区西鹿角社区卫生服务站西南(赵赵路)", "tel": "010-69913997", "star_level": null }, "geometry": { "type": "Point", "coordinates": [ 117.074968844652176, 40.114544776678088 ] } },
{ "type": "Feature", "properties": { "name": "0796便利店", "poiid": "B0FFFXLWMB", "classify": "超市", "address": "北京市昌平区定泗路石记烧烤旁", "tel": null, "star_level": null }, "geometry": { "type": "Point", "coordinates": [ 116.378470812439915, 40.112821124196046 ] } },
{ "type": "Feature", "properties": { "name": "家家福超市(西沙店)", "poiid": "B0FFFADF8D", "classify": "超市", "address": "北京市昌平区北七家镇西沙各庄村65号", "tel": "18618168538", "star_level": null }, "geometry": { "type": "Point", "coordinates": [ 116.385292416810984, 40.112575048208228 ] } },
{ "type": "Feature", "properties": { "name": "冠雅苑便民超市", "poiid": "B0FFJ2BY45", "classify": "超市", "address": "北京市昌平区北七家冠雅苑3号楼", "tel": null, "star_level": null }, "geometry": { "type": "Point", "coordinates": [ 116.40107089877128, 40.113068448305128 ] } },
{ "type": "Feature", "properties": { "name": "蔬菜水果超市", "poiid": "B0FFIHDLBY", "classify": "超市", "address": "北京市昌平区", "tel": null, "star_level": null }, "geometry": { "type": "Point", "coordinates": [ 116.440306147933015, 40.113958291411393 ] } },
{ "type": "Feature", "properties": { "name": "北京鲁德夏超市", "poiid": "B000A88113", "classify": "超市", "address": "北京市顺义区后营一街与李魏路交叉口东南100米", "tel": null, "star_level": null }, "geometry": { "type": "Point", "coordinates": [ 116.75173259079456, 40.113329233527182 ] } },
{ "type": "Feature", "properties": { "name": "家祥超市", "poiid": "B0FFGIUXP0", "classify": "超市", "address": "北京市海淀区上庄南玉河村新农建小区西", "tel": null, "star_level": null }, "geometry": { "type": "Point", "coordinates": [ 116.224956007003811, 40.110655698776242 ] } },
{ "type": "Feature", "properties": { "name": "盛天泉水站网络超市", "poiid": "B0FFGIY47J", "classify": "超市", "address": "北京市昌平区北七家镇宏福苑小区80号楼5单元", "tel": null, "star_level": null }, "geometry": { "type": "Point", "coordinates": [ 116.357865366339681, 40.111825544238087 ] } },
{ "type": "Feature", "properties": { "name": "京顺超市", "poiid": "B0FFGIC86S", "classify": "超市", "address": "北京市昌平区北七家镇白庙路北京琦安电器有限公司旁200米", "tel": null, "star_level": null }, "geometry": { "type": "Point", "coordinates": [ 116.382228320837015, 40.111295794248576 ] } },
{ "type": "Feature", "properties": { "name": "鑫绿都生活超市", "poiid": "B0FFI6I3PF", "classify": "超市", "address": "北京市顺义区仁和镇澜西园三区8号楼东70米", "tel": "15011024123;13691422966", "star_level": null }, "geometry": { "type": "Point", "coordinates": [ 116.631326988935484, 40.112334765195854 ] } },
{ "type": "Feature", "properties": { "name": "上海联花超市", "poiid": "B000A883RJ", "classify": "超市", "address": "北京市海淀区北安河路西50米", "tel": "13511005202", "star_level": null }, "geometry": { "type": "Point", "coordinates": [ 116.110617996454238, 40.108344849348072 ] } },
{ "type": "Feature", "properties": { "name": "皓轩超市", "poiid": "B0FFIVNP5C", "classify": "超市", "address": "北京市顺义区京深路与夏场路交叉口南50米", "tel": null, "star_level": null }, "geometry": { "type": "Point", "coordinates": [ 116.845230767726918, 40.109787328243257 ] } },
{ "type": "Feature", "properties": { "name": "华联购物中心(东崔路)", "poiid": "B000A8Y96S", "classify": "超市", "address": "北京市平谷区东高村镇路口", "tel": null, "star_level": null }, "geometry": { "type": "Point", "coordinates": [ 117.108323208093651, 40.108397196531286 ] } },
{ "type": "Feature", "properties": { "name": "同力源便利超市", "poiid": "B000A7QNKI", "classify": "超市", "address": "北京市海淀区苏家坨苏家坨镇台头村甲121号", "tel": "010-62459511", "star_level": null }, "geometry": { "type": "Point", "coordinates": [ 116.110954290032382, 40.10664380490779 ] } },
{ "type": "Feature", "properties": { "name": "世纪华联超市(后沙峪店)", "poiid": "B0FFGIG98X", "classify": "超市", "address": "北京市顺义区蔚然路4号", "tel": "13810138758", "star_level": null }, "geometry": { "type": "Point", "coordinates": [ 116.560840322375313, 40.107663206458099 ] } },
{ "type": "Feature", "properties": { "name": "美廉美超市(顺义仁和店)", "poiid": "B000A87A8D", "classify": "超市", "address": "北京市顺义区石园南大街18号院4室", "tel": "010-89457131;010-89446856", "star_level": null }, "geometry": { "type": "Point", "coordinates": [ 116.66011954903604, 40.106600657701506 ] } },
{ "type": "Feature", "properties": { "name": "北京鑫达通源商贸有限公司", "poiid": "B0FFH7FT7B", "classify": "超市", "address": "北京市顺义区仁和河南村小区", "tel": null, "star_level": null }, "geometry": { "type": "Point", "coordinates": [ 116.690696053504951, 40.106630768775943 ] } },
{ "type": "Feature", "properties": { "name": "亿毛钱超市", "poiid": "B0FFFADTYB", "classify": "超市", "address": "北京市顺义区幸福大街12号", "tel": null, "star_level": null }, "geometry": { "type": "Point", "coordinates": [ 116.798179775476484, 40.10749470829964 ] } },
{ "type": "Feature", "properties": { "name": "北京志媛佳超市", "poiid": "B000A883GG", "classify": "超市", "address": "北京市顺义区朝阳路113号", "tel": null, "star_level": null }, "geometry": { "type": "Point", "coordinates": [ 116.816276943683647, 40.106903669834139 ] } },
{ "type": "Feature", "properties": { "name": "铭利棋扬超市", "poiid": "B0FFG4AX4X", "classify": "超市", "address": "北京市昌平区回龙观镇西半壁店村18号", "tel": "13911081007", "star_level": null }, "geometry": { "type": "Point", "coordinates": [ 116.273053031563776, 40.103851470351216 ] } },
{ "type": "Feature", "properties": { "name": "华联生活超市(白庙西街店)", "poiid": "B000A8XEH9", "classify": "超市", "address": "北京市昌平区北七家", "tel": "010-57222568;13522776788", "star_level": null }, "geometry": { "type": "Point", "coordinates": [ 116.378670377135279, 40.101701979041096 ] } },
{ "type": "Feature", "properties": { "name": "家裕祥超市", "poiid": "B0FFFDQUO8", "classify": "超市", "address": "北京市昌平区名佳花园3区23号楼1单元101室", "tel": "13910055335", "star_level": null }, "geometry": { "type": "Point", "coordinates": [ 116.414291126728045, 40.103382904529568 ] } },
{ "type": "Feature", "properties": { "name": "隆华生活超市(后沙峪分店)", "poiid": "B0FFH83K2O", "classify": "超市", "address": "北京市顺义区后沙峪隆华购物中心(后沙峪分店)", "tel": null, "star_level": null }, "geometry": { "type": "Point", "coordinates": [ 116.535048702955265, 40.10368446469306 ] } },
{ "type": "Feature", "properties": { "name": "天福超市(郑上路)", "poiid": "B0FFFDZUT4", "classify": "超市", "address": "北京市昌平区北七家镇温都水城宏福创业园", "tel": "010-89728284", "star_level": null }, "geometry": { "type": "Point", "coordinates": [ 116.362260898947724, 40.100596901774409 ] } },
{ "type": "Feature", "properties": { "name": "物美超市(温都水城店)", "poiid": "B000A8W0EW", "classify": "超市", "address": "北京市昌平区北七家镇平西府商业街甲21-2号", "tel": "010-81786865;010-81786346", "star_level": null }, "geometry": { "type": "Point", "coordinates": [ 116.37692537009714, 40.101104852557185 ] } },
{ "type": "Feature", "properties": { "name": "世纪华联超市(罗各庄店)", "poiid": "B0FFHC8G0Y", "classify": "超市", "address": "北京市顺义区后沙峪镇罗各庄村后街15号", "tel": "13681456323;13718591801", "star_level": null }, "geometry": { "type": "Point", "coordinates": [ 116.506437416672711, 40.100312772393238 ] } },
{ "type": "Feature", "properties": { "name": "世纪华联生活超市(兴业家园南)", "poiid": "B0FFG4UTZC", "classify": "超市", "address": "北京市昌平区回龙观北京昌平回龙观西半壁店村277号", "tel": null, "star_level": null }, "geometry": { "type": "Point", "coordinates": [ 116.276689587831527, 40.098046387433996 ] } },
{ "type": "Feature", "properties": { "name": "物美大卖场(后沙峪店)", "poiid": "B000AB9B0P", "classify": "超市", "address": "北京市顺义区裕民大街36号", "tel": "010-69458675;010-69458199;4001016016", "star_level": null }, "geometry": { "type": "Point", "coordinates": [ 116.535738178491613, 40.098075193166736 ] } },
{ "type": "Feature", "properties": { "name": "超市发(朱辛庄店)", "poiid": "B0FFGXORUH", "classify": "超市", "address": "北京市昌平区朱辛庄新区", "tel": "13661117469", "star_level": null }, "geometry": { "type": "Point", "coordinates": [ 116.305864453911781, 40.097624151110651 ] } },
{ "type": "Feature", "properties": { "name": "华联生活超市(平西府店)", "poiid": "B0FFFH8TAC", "classify": "超市", "address": "北京市昌平区平西府村附近", "tel": "15910645860", "star_level": null }, "geometry": { "type": "Point", "coordinates": [ 116.36786719083787, 40.097175195217133 ] } },
{ "type": "Feature", "properties": { "name": "慈善超市", "poiid": "B0FFJJM7OO", "classify": "超市", "address": "北京市昌平区", "tel": null, "star_level": null }, "geometry": { "type": "Point", "coordinates": [ 116.282878007292751, 40.094473186135303 ] } },
{ "type": "Feature", "properties": { "name": "永旺超市(永旺国际商城店)", "poiid": "B0FFFQ7VEB", "classify": "超市", "address": "北京市昌平区北清路1号院1号楼永旺1层", "tel": "010-80700588", "star_level": null }, "geometry": { "type": "Point", "coordinates": [ 116.284958097934719, 40.094424889087691 ] } },
{ "type": "Feature", "properties": { "name": "世纪华联超市(李遂店)", "poiid": "B000A885PS", "classify": "超市", "address": "北京市顺义区006县道(顺义供销社隆华购物中心南)", "tel": "13621193531", "star_level": null }, "geometry": { "type": "Point", "coordinates": [ 116.752878986597068, 40.094261137247088 ] } },
{ "type": "Feature", "properties": { "name": "世纪华联超市(海昌店)", "poiid": "B000A8XEBI", "classify": "超市", "address": "北京市顺义区后沙峪西田各庄村贯中路28号", "tel": "010-80481385", "star_level": null }, "geometry": { "type": "Point", "coordinates": [ 116.510964592099228, 40.090877881646165 ] } },
{ "type": "Feature", "properties": { "name": "东三旗华联生活超市", "poiid": "B0FFGFJBY6", "classify": "超市", "address": "北京市昌平区回南路南30米", "tel": "15910619617", "star_level": null }, "geometry": { "type": "Point", "coordinates": [ 116.411086729764918, 40.087540193796144 ] } },
{ "type": "Feature", "properties": { "name": "世纪华联超市(嘉昌隆商店)", "poiid": "B000AA14TG", "classify": "超市", "address": "北京市顺义区天竺镇杨二营村中街17号", "tel": "15811233306", "star_level": null }, "geometry": { "type": "Point", "coordinates": [ 116.562845345735582, 40.088064099550252 ] } },
{ "type": "Feature", "properties": { "name": "北京客麦隆超市", "poiid": "B000A883I7", "classify": "超市", "address": "北京市平谷区赵家务东路78号附近", "tel": null, "star_level": null }, "geometry": { "type": "Point", "coordinates": [ 117.088295261859912, 40.088612086772912 ] } },
{ "type": "Feature", "properties": { "name": "社区便民服务超市(暂停营业)", "poiid": "B0FFJKE73O", "classify": "超市", "address": "北京市海淀区新谊路附近", "tel": null, "star_level": null }, "geometry": { "type": "Point", "coordinates": [ 116.253661220073724, 40.08599483728409 ] } },
{ "type": "Feature", "properties": { "name": "华联超市(东三旗店)", "poiid": "B0FFFWLRTO", "classify": "超市", "address": "北京市昌平区东三旗村467号", "tel": "17344409157", "star_level": null }, "geometry": { "type": "Point", "coordinates": [ 116.410499234199506, 40.085300908088669 ] } },
{ "type": "Feature", "properties": { "name": "世纪华联超市(南七家庄村中心街)", "poiid": "B000A8XD06", "classify": "超市", "address": "北京市昌平区南七家庄村中心街与南七家庄村主街交叉口南150米", "tel": null, "star_level": null }, "geometry": { "type": "Point", "coordinates": [ 116.4533580315113, 40.085321711301802 ] } },
{ "type": "Feature", "properties": { "name": "北京大孙各庄龙客隆超市", "poiid": "B000A7PWTX", "classify": "超市", "address": "北京市顺义区七大路与华东街交叉口东100米", "tel": null, "star_level": null }, "geometry": { "type": "Point", "coordinates": [ 116.916314647197737, 40.085603373050702 ] } },
{ "type": "Feature", "properties": { "name": "大孙各庄兰玲超市", "poiid": "B000A88349", "classify": "超市", "address": "北京市顺义区大孙各庄镇大孙各庄中学对面", "tel": null, "star_level": null }, "geometry": { "type": "Point", "coordinates": [ 116.914966087937373, 40.086050511002554 ] } },
{ "type": "Feature", "properties": { "name": "华联购物中心", "poiid": "B000A8XRF8", "classify": "超市", "address": "北京市平谷区东高村镇侯家庄南大街甲25号", "tel": null, "star_level": null }, "geometry": { "type": "Point", "coordinates": [ 117.052554320096959, 40.085677272081384 ] } },
{ "type": "Feature", "properties": { "name": "候庄来利超市", "poiid": "B000A883JL", "classify": "超市", "address": "北京市平谷区东高村", "tel": null, "star_level": null }, "geometry": { "type": "Point", "coordinates": [ 117.05370273947716, 40.085774201154706 ] } },
{ "type": "Feature", "properties": { "name": "北京通达利伟超市", "poiid": "B000A8Y9TH", "classify": "超市", "address": "北京市平谷区大旺务路大旺务小学北500米", "tel": null, "star_level": null }, "geometry": { "type": "Point", "coordinates": [ 117.116994979381559, 40.085672256946566 ] } },
{ "type": "Feature", "properties": { "name": "永泰爱民超市", "poiid": "B0FFG41H2M", "classify": "超市", "address": "北京市海淀区苏家坨镇西埠头村北街30号", "tel": null, "star_level": null }, "geometry": { "type": "Point", "coordinates": [ 116.118039086461081, 40.08313262522222 ] } },
{ "type": "Feature", "properties": { "name": "京龙禧超市", "poiid": "B000A7WVHJ", "classify": "超市", "address": "北京市昌平区回龙观龙禧苑二区1号楼底商", "tel": "010-80758168", "star_level": null }, "geometry": { "type": "Point", "coordinates": [ 116.337145559787785, 40.084775860309591 ] } },
{ "type": "Feature", "properties": { "name": "绿爸爸超市(龙锦苑店)", "poiid": "B0FFIBKBOL", "classify": "超市", "address": "北京市昌平区龙锦苑东五区10号楼一单元101", "tel": null, "star_level": null }, "geometry": { "type": "Point", "coordinates": [ 116.367708839178107, 40.084568735361103 ] } },
{ "type": "Feature", "properties": { "name": "世纪华联购物中心(翠湖园别墅东北)", "poiid": "B000A9S3HN", "classify": "超市", "address": "北京市昌平区回南路山西面食对面", "tel": null, "star_level": null }, "geometry": { "type": "Point", "coordinates": [ 116.388696351647368, 40.083369711041442 ] } },
{ "type": "Feature", "properties": { "name": "世纪华联购物中心", "poiid": "B0FFH96DKJ", "classify": "超市", "address": "北京市昌平区东小口半截塔村北好苗苗幼儿园", "tel": null, "star_level": null }, "geometry": { "type": "Point", "coordinates": [ 116.390099170207975, 40.084288208484651 ] } },
{ "type": "Feature", "properties": { "name": "新世纪商城(燕丹分店)", "poiid": "B000A8XHYD", "classify": "超市", "address": "北京市昌平区北七家镇燕丹村10号", "tel": null, "star_level": null }, "geometry": { "type": "Point", "coordinates": [ 116.433873165845881, 40.083696428537365 ] } },
{ "type": "Feature", "properties": { "name": "好又多超市(燕丹1899店)", "poiid": "B0FFFVIC1P", "classify": "超市", "address": "北京市昌平区燕丹村529号", "tel": null, "star_level": null }, "geometry": { "type": "Point", "coordinates": [ 116.437725834846503, 40.083824152946477 ] } },
{ "type": "Feature", "properties": { "name": "如意超市(016乡道)", "poiid": "B000A7Q8DT", "classify": "超市", "address": "北京市顺义区016乡道南50米", "tel": null, "star_level": null }, "geometry": { "type": "Point", "coordinates": [ 116.661103684306156, 40.085016869902617 ] } },
{ "type": "Feature", "properties": { "name": "世纪家家福连锁超市(燕丹店)", "poiid": "B000AA151V", "classify": "超市", "address": "北京市昌平区太海路星火双语幼儿园旁", "tel": null, "star_level": null },